{
  "pois": [
    {
      "name": "አዲስ አበባ / Addis Ababa",
      "alternativeNames": [],
      "localizedNames": {
        "af": "Addis Abeba",
        "am": "አዲስ አበባ",
        "an": "Addis Abeba",
        "ar": "أديس أبابا",
        "arz": "اديس ابابا",
        "az": "Əddis-Əbəbə",
        "bat-smg": "Adis Abeba",
        "be": "Адыс-Абеба",
        "be-tarask": "Адыс-Абэба",
        "bg": "Адис Абеба",
        "bn": "আদ্দিস আবাবা",
        "bo": "ཨ་ཌི་སི་ཨ་བ་བ།",
        "br": "Addis Abeba",
        "bs": "Adis Abeba",
        "ca": "Addis Abeba",
        "ckb": "ئادیس ئابابا",
        "cs": "Addis Abeba",
        "de": "Addis Abeba",
        "el": "Αντίς Αμπέμπα",
        "en": "Addis Ababa",
        "eo": "Adis-Abebo",
        "es": "Adís Abeba",
        "et": "Addis Abeba",
        "eu": "Addis Abeba",
        "fa": "آدیس آبابا",
        "fi": "Addis Abeba",
        "fr": "Addis-Abeba",
        "fy": "Addis Abeba",
        "ga": "Adas Ababa",
        "gl": "Adís Abeba - አዲስ አበባ",
        "he": "אדיס אבבה",
        "hi": "अदीस अबाबा",
        "hr": "Adis Abeba",
        "ht": "Adis-Abeba",
        "hu": "Addisz-Abeba",
        "hy": "Ադիս Աբեբա",
        "ie": "Addis Abeba",
        "it": "Addis Abeba",
        "ja": "アディスアベバ",
        "ka": "ადის-აბება",
        "kab": "Addis Abeba",
        "kn": "ಅಡಿಸ್ ಅಬಾಬ",
        "ko": "아디스아바바",
        "ku": "Addîs Ababa",
        "ky": "Аддис-Абеба",
        "la": "Neanthopolis",
        "lb": "Addis Abeba",
        "lt": "Adis Abeba",
        "lv": "Adisabeba",
        "mg": "Addis Abeba",
        "mk": "Адис Абеба",
        "ml": "അഡിസ് അബെബ",
        "mn": "Аддис-Абеба",
        "mr": "अदिस अबाबा",
        "mrj": "Аддис-Абеба",
        "my": "အာဒစ် အာဘာဘာမြို့",
        "nah": "Adis Abeba",
        "new": "अदिस अबाबा",
        "nl": "Addis Abeba",
        "nn": "Addis Abeba",
        "no": "Addis Abeba",
        "nov": "Adis Ababa",
        "oc": "Addis Abeba",
        "om": "Finfinne",
        "os": "Аддис-Абебæ",
        "pa": "ਆਦਿਸ ਆਬਬਾ",
        "pl": "Addis Abeba",
        "pnb": "ادیس ابابا",
        "pt": "Adis Abeba",
        "qu": "Adis Ababa",
        "rm": "Addis Abeba",
        "ro": "Addis Abeba",
        "ru": "Аддис-Абеба",
        "sh": "Adis Abeba",
        "sk": "Addis Abeba",
        "sl": "Adis Abeba",
        "so": "Addis Abeba",
        "sq": "Addis Abeba",
        "sr": "Адис Абеба",
        "sv": "Addis Abeba",
        "ta": "அடிஸ் அபாபா",
        "tg": "Аддис-Абеба",
        "th": "แอดดิสอาบาบา",
        "tl": "Adis Abeba",
        "tr": "Addis Ababa",
        "udm": "Аддис-Абеба",
        "uk": "Аддис-Абеба",
        "ur": "ادیس ابابا",
        "wo": "Addis-Abeba",
        "zh": "亞的斯亞貝巴/亚的斯亚贝巴"
      },
      "coordinates": [
        38.7612525,
        9.0107934
      ],
      "address": null,
      "type": null
    },
    {
      "name": "Zemen Bank Bole MedhaneAlem Branch",
      "alternativeNames": [],
      "localizedNames": {
        "am": "ዘመን ባንክ ቦሌ መድኃኔዓለም ቅ/ፍ"
      },
      "coordinates": [
        38.7902098,
        8.9944064
      ],
      "address": "Cameroon Street",
      "type": "amenity:bank"
    },
    {
      "name": "Bole dilidiy",
      "alternativeNames": [],
      "localizedNames": {
        "am": "ቦሌ ድልድይ",
        "en": "ቦሌ ድልድይ"
      },
      "coordinates": [
        38.7928346,
        8.9887285
      ],
      "address": "Ring Road",
      "type": "amenity:bus_station"
    },
    {
      "name": "አራት ኪሎ / Arat Kilo",
      "alternativeNames": [],
      "localizedNames": {
        "am": "አራት ኪሎ",
        "en": "Arat Kilo",
        "fr": "Arat Kilo"
      },
      "coordinates": [
        38.7633682,
        9.0329132
      ],
      "address": null,
      "type": null
    },
    {
      "name": "Amist Kilo",
      "alternativeNames": [],
      "localizedNames": {},
      "coordinates": [
        38.7626764,
        9.037716
      ],
      "address": null,
      "type": null
    },
    {
      "name": "የካ",
      "alternativeNames": [],
      "localizedNames": {
        "en": "Yeka",
        "fr": "Yeka"
      },
      "coordinates": [
        38.8339605,
        9.0499765
      ],
      "address": null,
      "type": null
    },
    {
      "name": "አቃቂ ቃሊቲ / Akaki Kaliti Factory",
      "alternativeNames": [],
      "localizedNames": {
        "am": "አቃቂ ቃሊቲ",
        "en": "Akaki-Kaliti",
        "fr": "Akaki-Kaliti"
      },
      "coordinates": [
        38.8003557,
        8.9013695
      ],
      "address": null,
      "type": null
    },
    {
      "name": "ንፋስ ስልክ ላፍቶ",
      "alternativeNames": [],
      "localizedNames": {
        "en": "Nefas Silk-Lafto",
        "fr": "Nefas Silk-Lafto"
      },
      "coordinates": [
        38.7274968,
        8.9577358
      ],
      "address": null,
      "type": null
    },
    {
      "name": "ኮልፌ ቀራኒዎ",
      "alternativeNames": [],
      "localizedNames": {
        "en": "Kolfe Keranyo",
        "fr": "Kolfe Keranyo"
      },
      "coordinates": [
        38.6874854,
        9.0049643
      ],
      "address": null,
      "type": null
    },
    {
      "name": "ልደታ ክፍለ ከተማ Lideta",
      "alternativeNames": [],
      "localizedNames": {
        "am": "ልደታ ክፍለ ከተማ",
        "en": "Lideta",
        "fr": "Lideta"
      },
      "coordinates": [
        38.7304012,
        9.0195026
      ],
      "address": null,
      "type": null
    },
    {
      "name": "ቂርቆስ ክፍለ ከተማ Kirkos",
      "alternativeNames": [],
      "localizedNames": {
        "am": "ቂርቆስ ክፍለ ከተማ",
        "en": "Kirkos",
        "fr": "Kirkos"
      },
      "coordinates": [
        38.7564134,
        9.0023309
      ],
      "address": null,
      "type": null
    },
    {
      "name": "አዲስ ከተማ ክፍለ ከተማ",
      "alternativeNames": [],
      "localizedNames": {
        "en": "Addis Ketema",
        "fr": "Addis Ketema"
      },
      "coordinates": [
        38.7289821,
        9.0386175
      ],
      "address": null,
      "type": null
    },
    {
      "name": "Temenja Yazh",
      "alternativeNames": [],
      "localizedNames": {},
      "coordinates": [
        38.7596421,
        8.9953506
      ],
      "address": null,
      "type": "amenity:taxi"
    },
    {
      "name": "Gotera Agona Cinema",
      "alternativeNames": [],
      "localizedNames": {},
      "coordinates": [
        38.7597946,
        8.9873175
      ],
      "address": null,
      "type": "amenity:taxi"
    },
    {
      "name": "ቦሌ",
      "alternativeNames": [],
      "localizedNames": {
        "en": "Bole",
        "fr": "Bole"
      },
      "coordinates": [
        38.7933956,
        8.9867182
      ],
      "address": null,
      "type": null
    },
    {
      "name": "Insilale Terara",
      "alternativeNames": [],
      "localizedNames": {},
      "coordinates": [
        38.9012504,
        8.8802527
      ],
      "address": null,
      "type": "natural:volcano"
    },
    {
      "name": "ኣዲስ ኣበባ / Addis Ababa",
      "alternativeNames": [],
      "localizedNames": {
        "am": "ኣዲስ ኣበባ",
        "de": "Addis Abeba",
        "en": "Addis Ababa",
        "fi": "Addis Abeba",
        "fr": "Addis-Abeba",
        "lt": "Adis Abeba",
        "ru": "Аддис-Абеба",
        "uk": "Аддис-Абеба"
      },
      "coordinates": [
        38.75,
        9
      ],
      "address": null,
      "type": null
    },
    {
      "name": "Exhibition Centre Back Gate",
      "alternativeNames": [],
      "localizedNames": {
        "am": "ኤግዚቢሽን ማዕከል የጀርባ መግቢያ"
      },
      "coordinates": [
        38.7616182,
        9.0074221
      ],
      "address": null,
      "type": null
    },
    {
      "name": "Gotera Agona Cinema",
      "alternativeNames": [],
      "localizedNames": {},
      "coordinates": [
        38.7599596,
        8.9873078
      ],
      "address": null,
      "type": "amenity:taxi"
    },
    {
      "name": "Passion Burger",
      "alternativeNames": [],
      "localizedNames": {
        "am": "ፓሽን በርገር"
      },
      "coordinates": [
        38.7925942,
        8.9914634
      ],
      "address": "Cameroon Street 553",
      "type": "amenity:fast_food"
    },
    {
      "name": "ሸጎሌ",
      "alternativeNames": [],
      "localizedNames": {
        "en": "Shegole",
        "fr": "Shegole"
      },
      "coordinates": [
        38.7201776,
        9.063156
      ],
      "address": null,
      "type": null
    },
    {
      "name": "GG Royal Hotel",
      "alternativeNames": [],
      "localizedNames": {
        "am": "ጂጂ ሮያል ሆቴል"
      },
      "coordinates": [
        38.8013214,
        9.0020233
      ],
      "address": null,
      "type": "tourism:hotel"
    },
    {
      "name": "Sky Hotel",
      "alternativeNames": [],
      "localizedNames": {
        "am": "ስካይ ሆቴል"
      },
      "coordinates": [
        38.8024922,
        9.0012857
      ],
      "address": null,
      "type": "tourism:hotel"
    },
    {
      "name": "Eliston Hotel",
      "alternativeNames": [],
      "localizedNames": {},
      "coordinates": [
        38.802732,
        9.0011167
      ],
      "address": null,
      "type": "amenity:restaurant"
    },
    {
      "name": "NOC",
      "alternativeNames": [],
      "localizedNames": {
        "am": "ኖክ ነዳጅ ማደያ",
        "en": "NOC Fuel Station"
      },
      "coordinates": [
        38.8034009,
        9.000704
      ],
      "address": null,
      "type": "amenity:fuel"
    },
    {
      "name": "Unity University",
      "alternativeNames": [],
      "localizedNames": {
        "am": "ዩኒቲ ዩኒቨርሲቲ"
      },
      "coordinates": [
        38.804337,
        9.0001673
      ],
      "address": null,
      "type": "amenity:school"
    },
    {
      "name": "CPU College",
      "alternativeNames": [],
      "localizedNames": {
        "am": "ሲፒዩ ኮሌጅ"
      },
      "coordinates": [
        38.8024916,
        9.0006759
      ],
      "address": null,
      "type": "amenity:school"
    },
    {
      "name": "Red Roof",
      "alternativeNames": [],
      "localizedNames": {},
      "coordinates": [
        38.8033156,
        8.9952813
      ],
      "address": null,
      "type": "amenity:restaurant"
    },
    {
      "name": "Royal House",
      "alternativeNames": [],
      "localizedNames": {
        "am": "ሮያል ሀውስ"
      },
      "coordinates": [
        38.7926834,
        8.9895108
      ],
      "address": null,
      "type": "amenity:restaurant"
    },
    {
      "name": "Ten Ten",
      "alternativeNames": [],
      "localizedNames": {},
      "coordinates": [
        38.792438,
        8.9892623
      ],
      "address": null,
      "type": "amenity:restaurant"
    },
    {
      "name": "Ilcamineto Restaurant",
      "alternativeNames": [],
      "localizedNames": {
        "am": "ኢልሚንቶ ሬስቶራንት"
      },
      "coordinates": [
        38.7922492,
        8.9891182
      ],
      "address": null,
      "type": "amenity:restaurant"
    },
    {
      "name": "Peoney Garden;Bean Addis",
      "alternativeNames": [],
      "localizedNames": {
        "am": "ፖኒ ጋርደን"
      },
      "coordinates": [
        38.7889658,
        8.988288
      ],
      "address": null,
      "type": "amenity:restaurant;cafe"
    },
    {
      "name": "Pro Tech",
      "alternativeNames": [],
      "localizedNames": {
        "am": "ፕሮ ቴክ"
      },
      "coordinates": [
        38.7871251,
        8.9895166
      ],
      "address": null,
      "type": "shop:computer"
    },
    {
      "name": "Magic Press Laundry",
      "alternativeNames": [],
      "localizedNames": {
        "am": "ማጂክ ፕሬስ ላውንድሪ"
      },
      "coordinates": [
        38.7881293,
        8.9890164
      ],
      "address": null,
      "type": "shop:laundry"
    },
    {
      "name": "Reem Trading",
      "alternativeNames": [],
      "localizedNames": {
        "am": "ሪም ትሬዲንግ"
      },
      "coordinates": [
        38.7889561,
        8.9887924
      ],
      "address": null,
      "type": "shop:electronics"
    },
    {
      "name": "TG Bar",
      "alternativeNames": [],
      "localizedNames": {},
      "coordinates": [
        38.7941546,
        8.9894318
      ],
      "address": null,
      "type": "amenity:bar"
    },
    {
      "name": "ETHOF",
      "alternativeNames": [],
      "localizedNames": {
        "am": "ኢትሆፍ"
      },
      "coordinates": [
        38.7554198,
        9.0389994
      ],
      "address": null,
      "type": "shop:department_store"
    },
    {
      "name": "Commercial Bank of Ethiopia",
      "alternativeNames": [],
      "localizedNames": {
        "am": "የኢትዮጵያ ንግድ ባንክ"
      },
      "coordinates": [
        38.7620868,
        9.0114124
      ],
      "address": null,
      "type": "amenity:bank"
    },
    {
      "name": "Bethel Medical College",
      "alternativeNames": [],
      "localizedNames": {
        "am": "ቤተል ሜዲካል ኮሌጅ"
      },
      "coordinates": [
        38.7307305,
        9.0143922
      ],
      "address": null,
      "type": "amenity:college"
    },
    {
      "name": "Pro-Pride",
      "alternativeNames": [],
      "localizedNames": {
        "am": "ፕሮፕራይድ"
      },
      "coordinates": [
        38.7395792,
        9.0127337
      ],
      "address": null,
      "type": "office:ngo"
    },
    {
      "name": "Petram PLC",
      "alternativeNames": [],
      "localizedNames": {},
      "coordinates": [
        38.7445097,
        9.0140921
      ],
      "address": null,
      "type": "shop:convenience"
    },
    {
      "name": "Bethel Fire Station",
      "alternativeNames": [],
      "localizedNames": {},
      "coordinates": [
        38.6818821,
        9.0064556
      ],
      "address": null,
      "type": "amenity:fire_station"
    },
    {
      "name": "Kirkos Sub City Fire Station (Kera)",
      "alternativeNames": [],
      "localizedNames": {
        "am": "የቂርቆስ ክ/ከተማ እሳትና ድንገተኛ አደጋዎች"
      },
      "coordinates": [
        38.7492433,
        8.9866281
      ],
      "address": null,
      "type": "amenity:fire_station"
    },
    {
      "name": "Nefas Silk Lafto Fire Station",
      "alternativeNames": [],
      "localizedNames": {
        "am": "የነፋስ ስልክ ላፍቶ ክ/ከተማ እሳትና ድንገተኛ አደጋዎች"
      },
      "coordinates": [
        38.7648997,
        8.9486058
      ],
      "address": null,
      "type": "amenity:fire_station"
    },
    {
      "name": "Akaki Kaliti Fire Station",
      "alternativeNames": [],
      "localizedNames": {},
      "coordinates": [
        38.7889991,
        8.8715459
      ],
      "address": null,
      "type": "amenity:fire_station"
    },
    {
      "name": "Kaldi's Coffee",
      "alternativeNames": [],
      "localizedNames": {
        "am": "ካልዲስ ቡና",
        "en": "ካልዲስ ቡና"
      },
      "coordinates": [
        38.7588238,
        8.9920862
      ],
      "address": null,
      "type": "amenity:cafe"
    },
    {
      "name": "Bilo's Pastry",
      "alternativeNames": [],
      "localizedNames": {
        "am": "ቢሎስ  ኬክ ቤት"
      },
      "coordinates": [
        38.7589682,
        8.990732
      ],
      "address": null,
      "type": "amenity:cafe"
    },
    {
      "name": "Senay Higer Clinic",
      "alternativeNames": [],
      "localizedNames": {},
      "coordinates": [
        38.7597072,
        8.9891687
      ],
      "address": null,
      "type": "amenity:clinic"
    },
    {
      "name": "3 ኤፍ ፈርኒቸር ፋብሪካ",
      "alternativeNames": [],
      "localizedNames": {
        "am": "ከታር ሆቴል",
        "en": "3F furniture factory"
      },
      "coordinates": [
        38.76352,
        8.955083
      ],
      "address": null,
      "type": "tourism:hotel"
    },
    {
      "name": "Ambassador",
      "alternativeNames": [],
      "localizedNames": {
        "am": "አምባሳደር"
      },
      "coordinates": [
        38.7541064,
        9.0181968
      ],
      "address": null,
      "type": "amenity:cinema"
    },
    {
      "name": "La Parisienne",
      "alternativeNames": [],
      "localizedNames": {
        "am": "ላ ፓሪዚያን ካፌ"
      },
      "coordinates": [
        38.7679213,
        9.002939
      ],
      "address": null,
      "type": "amenity:cafe"
    },
    {
      "name": "Sweet Cafe",
      "alternativeNames": [],
      "localizedNames": {
        "am": "ስዊት ካፌ"
      },
      "coordinates": [
        38.7685431,
        9.0029739
      ],
      "address": null,
      "type": "amenity:cafe"
    },
    {
      "name": "Oilibya",
      "alternativeNames": [],
      "localizedNames": {
        "am": "ኦሊቢያ"
      },
      "coordinates": [
        38.75105,
        9.0113636
      ],
      "address": null,
      "type": "amenity:fuel"
    },
    {
      "name": "werda 8",
      "alternativeNames": [],
      "localizedNames": {
        "am": "ወረዳ ስምንት"
      },
      "coordinates": [
        38.7249667,
        9.0499866
      ],
      "address": null,
      "type": null
    },
    {
      "name": "Bonjour",
      "alternativeNames": [],
      "localizedNames": {
        "am": "ቦንዡር ካፌ"
      },
      "coordinates": [
        38.7589074,
        9.0111787
      ],
      "address": null,
      "type": "amenity:cafe"
    },
    {
      "name": "La parisienne",
      "alternativeNames": [],
      "localizedNames": {
        "am": "ላፓሪስን"
      },
      "coordinates": [
        38.7681055,
        9.0027509
      ],
      "address": null,
      "type": "amenity:parking"
    },
    {
      "name": "Post Office",
      "alternativeNames": [],
      "localizedNames": {},
      "coordinates": [
        38.7679931,
        9.0034478
      ],
      "address": null,
      "type": "amenity:post_office"
    },
    {
      "name": "Purple Cafe",
      "alternativeNames": [],
      "localizedNames": {
        "am": "ፐርፕል ካፌ"
      },
      "coordinates": [
        38.7682371,
        9.0035345
      ],
      "address": null,
      "type": "amenity:cafe"
    },
    {
      "name": "Belvedere",
      "alternativeNames": [],
      "localizedNames": {},
      "coordinates": [
        38.7938517,
        9.0056228
      ],
      "address": null,
      "type": "amenity:restaurant"
    },
    {
      "name": "Arsema Mini Market",
      "alternativeNames": [],
      "localizedNames": {
        "am": "ሴላቪ ካፌ",
        "en": "Celavie Cafe"
      },
      "coordinates": [
        38.7930358,
        8.9901832
      ],
      "address": null,
      "type": "shop:supermarket"
    },
    {
      "name": "Baks Hotel Appartement",
      "alternativeNames": [],
      "localizedNames": {
        "am": "ባክስ ሆቴል አፓርታመንት"
      },
      "coordinates": [
        38.804825,
        8.999538
      ],
      "address": null,
      "type": "tourism:hotel"
    },
    {
      "name": "Selam Restaurant",
      "alternativeNames": [],
      "localizedNames": {
        "am": "ሰላም ሬስቶራንት"
      },
      "coordinates": [
        38.833935,
        9.028274
      ],
      "address": null,
      "type": "amenity:restaurant"
    },
    {
      "name": "Victory Monument",
      "alternativeNames": [],
      "localizedNames": {
        "am": "ድላችን ሀዉልት"
      },
      "coordinates": [
        38.7634223,
        9.0329145
      ],
      "address": null,
      "type": null
    },
    {
      "name": "Temudas Pension",
      "alternativeNames": [],
      "localizedNames": {
        "am": "ቴሙዳስ ፔንሲዮን"
      },
      "coordinates": [
        38.7838473,
        9.0011052
      ],
      "address": null,
      "type": "tourism:hotel"
    },
    {
      "name": "Mr. Martins Cozy Place",
      "alternativeNames": [],
      "localizedNames": {},
      "coordinates": [
        38.7791845,
        9.0029248
      ],
      "address": null,
      "type": "tourism:hostel"
    },
    {
      "name": "Tina Guest House",
      "alternativeNames": [],
      "localizedNames": {
        "am": "ቲና የእንግዳ ማረፊያ"
      },
      "coordinates": [
        38.77568,
        8.99672
      ],
      "address": null,
      "type": "tourism:hotel"
    },
    {
      "name": "ቃሊቲ ክራውን ሆቴል",
      "alternativeNames": [],
      "localizedNames": {
        "am": "ክራውን ሆቴል",
        "en": "kality-Crown Hotel"
      },
      "coordinates": [
        38.7627101,
        8.9137151
      ],
      "address": null,
      "type": "tourism:hotel"
    },
    {
      "name": "Zola Restaurant",
      "alternativeNames": [],
      "localizedNames": {
        "am": "ዞላ ሬስቶራንት"
      },
      "coordinates": [
        38.7859347,
        8.998784
      ],
      "address": null,
      "type": "amenity:restaurant"
    },
    {
      "name": "Alem Fitness Center",
      "alternativeNames": [],
      "localizedNames": {
        "am": "ዓለም የአካል ብቃት ማዕከል"
      },
      "coordinates": [
        38.7849336,
        8.9901729
      ],
      "address": null,
      "type": "leisure:fitness_centre"
    },
    {
      "name": "Bercheko Condominium",
      "alternativeNames": [],
      "localizedNames": {},
      "coordinates": [
        38.700755,
        9.0586717
      ],
      "address": null,
      "type": "public_transport:stop_position"
    },
    {
      "name": "Commercial Bank of Ethiopia (Finfine Branch)",
      "alternativeNames": [],
      "localizedNames": {
        "am": "የኢትዮጵያ ንግድ ባንክ (ፊንፊኔ ቅርንጫፍ)",
        "zh": "埃塞商业银行 Finfine 支行"
      },
      "coordinates": [
        38.7531454,
        9.014136
      ],
      "address": null,
      "type": "amenity:bank"
    },
    {
      "name": "TABY Engineering PLC",
      "alternativeNames": [],
      "localizedNames": {
        "am": "ታቢ ኢንጂኔሪንግ ኃ.የተ.የግ.ማህ"
      },
      "coordinates": [
        38.7927952,
        8.9938339
      ],
      "address": null,
      "type": null
    },
    {
      "name": "ሳሪስ አቦ አካባቢ / Saris Abo Area",
      "alternativeNames": [],
      "localizedNames": {
        "am": "ሳሪስ አቦ አካባቢ",
        "en": "Saris Abo Area",
        "fr": "Saris Abo Area"
      },
      "coordinates": [
        38.768078,
        8.944979
      ],
      "address": null,
      "type": null
    },
    {
      "name": "ሳሪስ / Saris",
      "alternativeNames": [],
      "localizedNames": {
        "am": "ሳሪስ",
        "en": "Saris",
        "fr": "Saris"
      },
      "coordinates": [
        38.7636211,
        8.9532491
      ],
      "address": null,
      "type": null
    },
    {
      "name": "አዲስ ሰፈር አካባቢ / Saris Addisu Seffer",
      "alternativeNames": [],
      "localizedNames": {
        "am": "አዲስ ሰፈር አካባቢ",
        "en": "Addis Sefer",
        "fr": "Addis Sefer"
      },
      "coordinates": [
        38.7715494,
        8.9568711
      ],
      "address": null,
      "type": null
    },
    {
      "name": "አየርጤና",
      "alternativeNames": [],
      "localizedNames": {
        "en": "Ayertena",
        "fr": "Ayertena"
      },
      "coordinates": [
        38.6971482,
        8.9835747
      ],
      "address": null,
      "type": null
    },
    {
      "name": "ዘነበወርቅ",
      "alternativeNames": [],
      "localizedNames": {
        "en": "Zenebework",
        "fr": "Zenebework"
      },
      "coordinates": [
        38.707801,
        8.9871126
      ],
      "address": null,
      "type": null
    },
    {
      "name": "መካኒሳ",
      "alternativeNames": [],
      "localizedNames": {
        "en": "Mekanisa",
        "fr": "Mekanisa"
      },
      "coordinates": [
        38.7305307,
        8.9719137
      ],
      "address": null,
      "type": null
    },
    {
      "name": "መካኒሳ ኣቦ",
      "alternativeNames": [],
      "localizedNames": {
        "en": "Mekanisa Abo",
        "fr": "Mekanisa Abo"
      },
      "coordinates": [
        38.7342148,
        8.9827291
      ],
      "address": null,
      "type": "tourism:attraction"
    },
    {
      "name": "ጎተራ",
      "alternativeNames": [],
      "localizedNames": {
        "en": "Gotera",
        "fr": "Gotera"
      },
      "coordinates": [
        38.7584682,
        8.9820782
      ],
      "address": null,
      "type": null
    },
    {
      "name": "ቄራ",
      "alternativeNames": [],
      "localizedNames": {
        "en": "Kera",
        "fr": "Kera"
      },
      "coordinates": [
        38.7502416,
        8.9847803
      ],
      "address": null,
      "type": null
    },
    {
      "name": "ብስራተ ገብርኤል",
      "alternativeNames": [],
      "localizedNames": {
        "en": "Besrat Gebriel",
        "fr": "Besrat Gebriel"
      },
      "coordinates": [
        38.7264037,
        8.9918958
      ],
      "address": null,
      "type": null
    },
    {
      "name": "ሶስት ቁጥር",
      "alternativeNames": [],
      "localizedNames": {
        "en": "Soste Kuter Mazoria (Total)",
        "fr": "Soste Kuter Mazoria (Total)"
      },
      "coordinates": [
        38.7171514,
        8.9927294
      ],
      "address": null,
      "type": null
    },
    {
      "name": "ቫቲካን",
      "alternativeNames": [],
      "localizedNames": {
        "en": "Vatican",
        "fr": "Vatican"
      },
      "coordinates": [
        38.7373252,
        8.9885822
      ],
      "address": null,
      "type": null
    },
    {
      "name": "ሳር ቤት",
      "alternativeNames": [],
      "localizedNames": {
        "en": "Sarbet",
        "fr": "Sarbet"
      },
      "coordinates": [
        38.7377689,
        8.9943201
      ],
      "address": null,
      "type": null
    },
    {
      "name": "መቻሬ ሜዳ አካባቢ",
      "alternativeNames": [],
      "localizedNames": {
        "en": "Mechare Meda",
        "fr": "Mechare Meda"
      },
      "coordinates": [
        38.733979,
        8.9969513
      ],
      "address": null,
      "type": null
    },
    {
      "name": "አጉስታ",
      "alternativeNames": [],
      "localizedNames": {
        "en": "Agusta",
        "fr": "Agusta"
      },
      "coordinates": [
        38.7171957,
        9.0059158
      ],
      "address": null,
      "type": null
    },
    {
      "name": "ሞቢል",
      "alternativeNames": [],
      "localizedNames": {
        "en": "Mobil",
        "fr": "Mobil"
      },
      "coordinates": [
        38.7187643,
        9.0016374
      ],
      "address": null,
      "type": null
    },
    {
      "name": "ላንቻ",
      "alternativeNames": [],
      "localizedNames": {
        "en": "Lancha",
        "fr": "Lancha"
      },
      "coordinates": [
        38.7597577,
        8.989616
      ],
      "address": null,
      "type": null
    },
    {
      "name": "ቡልጋሪያ",
      "alternativeNames": [],
      "localizedNames": {
        "en": "Bulgariya Mazoriya",
        "fr": "Bulgariya Mazoriya"
      },
      "coordinates": [
        38.7479297,
        8.9944519
      ],
      "address": null,
      "type": null
    },
    {
      "name": "በግ ተራ",
      "alternativeNames": [],
      "localizedNames": {
        "en": "Beg Tera",
        "fr": "Beg Tera"
      },
      "coordinates": [
        38.7478578,
        8.9977138
      ],
      "address": null,
      "type": null
    },
    {
      "name": "በቅሎ ቤት",
      "alternativeNames": [],
      "localizedNames": {
        "en": "Bekelo Bet",
        "fr": "Bekelo Bet"
      },
      "coordinates": [
        38.7582132,
        8.9982814
      ],
      "address": null,
      "type": null
    },
    {
      "name": "መሿለኪያ / Meshuwalekiya",
      "alternativeNames": [],
      "localizedNames": {
        "am": "መሿለኪያ",
        "en": "Meshuwalekiya",
        "fr": "Meshuwalekiya"
      },
      "coordinates": [
        38.7587009,
        9.0076487
      ],
      "address": null,
      "type": null
    },
    {
      "name": "ሪቼ Riche",
      "alternativeNames": [],
      "localizedNames": {
        "am": "ሪቼ",
        "en": "Riche",
        "fr": "Riche"
      },
      "coordinates": [
        38.7604314,
        9.0027652
      ],
      "address": null,
      "type": null
    },
    {
      "name": "አጠና ተራ አካባቢ",
      "alternativeNames": [],
      "localizedNames": {
        "en": "Atena Tera",
        "fr": "Atena Tera"
      },
      "coordinates": [
        38.714103,
        9.0408902
      ],
      "address": null,
      "type": null
    },
    {
      "name": "አስራስምንት",
      "alternativeNames": [],
      "localizedNames": {
        "en": "Aserasement",
        "fr": "Aserasement"
      },
      "coordinates": [
        38.7145127,
        9.0336525
      ],
      "address": null,
      "type": null
    },
    {
      "name": "ቀጠና ሁለት",
      "alternativeNames": [],
      "localizedNames": {
        "en": "Ketena Hulet",
        "fr": "Ketena Hulet"
      },
      "coordinates": [
        38.7199391,
        9.0115277
      ],
      "address": null,
      "type": null
    },
    {
      "name": "ኮልፌ ቀራኒዮ",
      "alternativeNames": [],
      "localizedNames": {
        "en": "Kolfe Keranio",
        "fr": "Kolfe Keranio"
      },
      "coordinates": [
        38.7171956,
        9.0164338
      ],
      "address": null,
      "type": null
    },
    {
      "name": "ኮካ ኮላ",
      "alternativeNames": [],
      "localizedNames": {
        "en": "Coca",
        "fr": "Coca"
      },
      "coordinates": [
        38.729965,
        9.0165367
      ],
      "address": null,
      "type": null
    },
    {
      "name": "ጆስ ሃንሰን",
      "alternativeNames": [],
      "localizedNames": {
        "en": "Jos Hanssen",
        "fr": "Jos Hanssen"
      },
      "coordinates": [
        38.7349582,
        9.0190785
      ],
      "address": null,
      "type": null
    },
    {
      "name": "ልደታ Lideta",
      "alternativeNames": [],
      "localizedNames": {
        "am": "ልደታ",
        "en": "Lideta",
        "fr": "Lideta"
      },
      "coordinates": [
        38.7366684,
        9.0110809
      ],
      "address": null,
      "type": null
    },
    {
      "name": "ዳርማር",
      "alternativeNames": [],
      "localizedNames": {
        "en": "Darmar",
        "fr": "Darmar"
      },
      "coordinates": [
        38.7342329,
        9.0141665
      ],
      "address": null,
      "type": null
    },
    {
      "name": "ጦር ሃይሎች",
      "alternativeNames": [],
      "localizedNames": {
        "en": "Tor Hiylloch",
        "fr": "Tor Hiylloch"
      },
      "coordinates": [
        38.7241029,
        9.0114846
      ],
      "address": null,
      "type": null
    },
    {
      "name": "ኮርቻ ተራ",
      "alternativeNames": [],
      "localizedNames": {
        "en": "Korech Tera",
        "fr": "Korech Tera"
      },
      "coordinates": [
        38.7371227,
        9.0260469
      ],
      "address": null,
      "type": null
    },
    {
      "name": "ምናለሽ ተራ",
      "alternativeNames": [],
      "localizedNames": {
        "en": "Minalesh Tera",
        "fr": "Minalesh Tera"
      },
      "coordinates": [
        38.7369512,
        9.0257602
      ],
      "address": null,
      "type": null
    },
    {
      "name": "መሶብ ተራ",
      "alternativeNames": [],
      "localizedNames": {
        "en": "Mesob Tera",
        "fr": "Mesob Tera"
      },
      "coordinates": [
        38.7368036,
        9.0277642
      ],
      "address": null,
      "type": null
    },
    {
      "name": "ዶሮ ተራ",
      "alternativeNames": [],
      "localizedNames": {
        "en": "Doro Tera",
        "fr": "Doro Tera"
      },
      "coordinates": [
        38.7361886,
        9.0272063
      ],
      "address": null,
      "type": null
    },
    {
      "name": "ሸማ ተራ",
      "alternativeNames": [],
      "localizedNames": {
        "en": "Shema Tera",
        "fr": "Shema Tera"
      },
      "coordinates": [
        38.736632,
        9.0283706
      ],
      "address": null,
      "type": null
    },
    {
      "name": "ሰባተኛ",
      "alternativeNames": [],
      "localizedNames": {
        "en": "Sebategna",
        "fr": "Sebategna"
      },
      "coordinates": [
        38.7329364,
        9.0291731
      ],
      "address": null,
      "type": null
    },
    {
      "name": "Abnet Square",
      "alternativeNames": [],
      "localizedNames": {
        "am": "አብነት አደባባይ"
      },
      "coordinates": [
        38.733281,
        9.0203363
      ],
      "address": null,
      "type": null
    },
    {
      "name": "ልደታ ክፍለ ከተማ Molla Maru",
      "alternativeNames": [],
      "localizedNames": {
        "am": "ሞላ ማሩ",
        "en": "Molla Maru",
        "fr": "Molla Maru"
      },
      "coordinates": [
        38.7355249,
        9.0227308
      ],
      "address": null,
      "type": null
    },
    {
      "name": "ጭድ ተራ",
      "alternativeNames": [],
      "localizedNames": {
        "en": "Ched Tera",
        "fr": "Ched Tera"
      },
      "coordinates": [
        38.7375003,
        9.0247142
      ],
      "address": null,
      "type": null
    },
    {
      "name": "አዲስ ከተማ አካባቢ",
      "alternativeNames": [],
      "localizedNames": {
        "en": "Addis Ketema",
        "fr": "Addis Ketema"
      },
      "coordinates": [
        38.7337122,
        9.0236913
      ],
      "address": null,
      "type": null
    },
    {
      "name": "አማኑኤል አካባቢ",
      "alternativeNames": [],
      "localizedNames": {
        "en": "Amanuel Area",
        "fr": "Amanuel Area"
      },
      "coordinates": [
        38.7230932,
        9.0279524
      ],
      "address": null,
      "type": null
    },
    {
      "name": "አምባሳደር",
      "alternativeNames": [],
      "localizedNames": {
        "en": "Ambassador",
        "fr": "Ambassador"
      },
      "coordinates": [
        38.7540338,
        9.0183054
      ],
      "address": null,
      "type": null
    },
    {
      "name": "ጌጃ ሰፈር",
      "alternativeNames": [],
      "localizedNames": {
        "en": "Geja Seffer",
        "fr": "Geja Seffer"
      },
      "coordinates": [
        38.7383996,
        9.0173623
      ],
      "address": null,
      "type": null
    },
    {
      "name": "ለገሐር አካባቢ / Legahar",
      "alternativeNames": [],
      "localizedNames": {
        "am": "ለገሐር አካባቢ",
        "en": "Legahar",
        "fr": "La Gare"
      },
      "coordinates": [
        38.753104,
        9.0116448
      ],
      "address": null,
      "type": null
    },
    {
      "name": "The Lion of Judah of Menelik II",
      "alternativeNames": [],
      "localizedNames": {},
      "coordinates": [
        38.753146,
        9.0109664
      ],
      "address": null,
      "type": "tourism:artwork"
    },
    {
      "name": "ሜክሲኮ",
      "alternativeNames": [],
      "localizedNames": {
        "en": "Mexico",
        "fr": "Mexico"
      },
      "coordinates": [
        38.744549,
        9.0103877
      ],
      "address": null,
      "type": null
    },
    {
      "name": "ሰንጋ ተራ Sengatera",
      "alternativeNames": [],
      "localizedNames": {
        "am": "ሰንጋ ተራ",
        "en": "Sengatera",
        "fr": "Sengatera"
      },
      "coordinates": [
        38.7469587,
        9.0149097
      ],
      "address": null,
      "type": null
    },
    {
      "name": "ጎማ ቁጠባ Goma Kuteba",
      "alternativeNames": [],
      "localizedNames": {
        "am": "ጎማ ቁጠባ",
        "en": "Goma Kuteba",
        "fr": "Goma Kuteba"
      },
      "coordinates": [
        38.7462864,
        9.0166053
      ],
      "address": null,
      "type": null
    },
    {
      "name": "ብሔራዊ",
      "alternativeNames": [],
      "localizedNames": {
        "en": "Beherawi",
        "fr": "Beherawi"
      },
      "coordinates": [
        38.7523203,
        9.0165434
      ],
      "address": null,
      "type": null
    },
    {
      "name": "The Lion of Judah of Haile Selassie I",
      "alternativeNames": [],
      "localizedNames": {
        "am": "ሙአንበሳ"
      },
      "coordinates": [
        38.7525006,
        9.0165253
      ],
      "address": null,
      "type": "tourism:artwork"
    },
    {
      "name": "Tewodros Square ቴዎድሮስ አደባባይ",
      "alternativeNames": [],
      "localizedNames": {
        "am": "ቴዎድሮስ አደባባይ",
        "en": "Tewodros Square | ቴዎድሮስ አደባባይ"
      },
      "coordinates": [
        38.7516197,
        9.0270567
      ],
      "address": null,
      "type": null
    },
    {
      "name": "ሸክላ ተራ",
      "alternativeNames": [],
      "localizedNames": {
        "en": "Shekela Tera",
        "fr": "Shekela Tera"
      },
      "coordinates": [
        38.7379213,
        9.0257509
      ],
      "address": null,
      "type": null
    },
    {
      "name": "ጎማ ተራ / Goma Tera",
      "alternativeNames": [],
      "localizedNames": {
        "am": "ጎማ ተራ",
        "en": "Goma Tera",
        "fr": "Goma Tera"
      },
      "coordinates": [
        38.7404567,
        9.0276802
      ],
      "address": null,
      "type": null
    },
    {
      "name": "ቦምብ ተራ",
      "alternativeNames": [],
      "localizedNames": {
        "en": "Bomb Tera",
        "fr": "Bomb Tera"
      },
      "coordinates": [
        38.7396551,
        9.029303
      ],
      "address": null,
      "type": null
    },
    {
      "name": "ሲዳሞ ተራ / Sidama Market",
      "alternativeNames": [],
      "localizedNames": {
        "am": "ሲዳሞ ተራ",
        "en": "Sidama Market"
      },
      "coordinates": [
        38.7410393,
        9.0294161
      ],
      "address": null,
      "type": "amenity:marketplace"
    },
    {
      "name": "ፖስታ ቤት",
      "alternativeNames": [],
      "localizedNames": {
        "en": "Posta Bet",
        "fr": "Posta Bet"
      },
      "coordinates": [
        38.7530961,
        9.021564
      ],
      "address": null,
      "type": null
    },
    {
      "name": "ሃደሬ ሰፈር / Hadere Sefer",
      "alternativeNames": [],
      "localizedNames": {
        "am": "ሃደሬ ሰፈር",
        "en": "Hadere Sefer",
        "fr": "Hadere Sefer"
      },
      "coordinates": [
        38.7391692,
        9.0279243
      ],
      "address": null,
      "type": null
    },
    {
      "name": "ሶማሌ ተራ",
      "alternativeNames": [],
      "localizedNames": {
        "en": "Somale Tera",
        "fr": "Somale Tera"
      },
      "coordinates": [
        38.7453494,
        9.0305658
      ],
      "address": null,
      "type": null
    },
    {
      "name": "ጎላ ሚካኤል አካባቢ",
      "alternativeNames": [],
      "localizedNames": {
        "en": "Golla Mikael",
        "fr": "Golla Mikael"
      },
      "coordinates": [
        38.7478132,
        9.025922
      ],
      "address": null,
      "type": null
    },
    {
      "name": "አሮጌ ቄራ አካባቢ Aroge Kera",
      "alternativeNames": [],
      "localizedNames": {
        "am": "አሮጌ ቄራ አካባቢ",
        "en": "Aroge Kera",
        "fr": "Aroge Kera"
      },
      "coordinates": [
        38.7547127,
        9.0264074
      ],
      "address": null,
      "type": null
    },
    {
      "name": "Tiglachin Monument",
      "alternativeNames": [],
      "localizedNames": {
        "am": "ትግላችን ሃውልት"
      },
      "coordinates": [
        38.7513233,
        9.0201682
      ],
      "address": null,
      "type": "tourism:artwork"
    },
    {
      "name": "ተክለሃይማኖት",
      "alternativeNames": [],
      "localizedNames": {
        "en": "Tekelehaymanot",
        "fr": "Tekelehaymanot"
      },
      "coordinates": [
        38.7434123,
        9.0285367
      ],
      "address": null,
      "type": null
    },
    {
      "name": "በርበሬ ተራ",
      "alternativeNames": [],
      "localizedNames": {
        "en": "Berberee Berenda",
        "fr": "Berberee Berenda"
      },
      "coordinates": [
        38.7405066,
        9.0262767
      ],
      "address": null,
      "type": null
    },
    {
      "name": "ሸራ ተራ / Shera Tera",
      "alternativeNames": [],
      "localizedNames": {
        "am": "ሸራ ተራ",
        "en": "Shera Tera",
        "fr": "Shera Tera"
      },
      "coordinates": [
        38.7359022,
        9.0307658
      ],
      "address": null,
      "type": null
    },
    {
      "name": "መሳለሚያ",
      "alternativeNames": [],
      "localizedNames": {
        "en": "Mesalemiya",
        "fr": "Mesalemiya"
      },
      "coordinates": [
        38.7249623,
        9.0338161
      ],
      "address": null,
      "type": null
    },
    {
      "name": "ወርቅ ተራ / Worik Tera",
      "alternativeNames": [],
      "localizedNames": {
        "am": "ወርቅ ተራ",
        "en": "Worik Tera",
        "fr": "Worik Tera"
      },
      "coordinates": [
        38.737013,
        9.0322322
      ],
      "address": null,
      "type": null
    },
    {
      "name": "ሳጥን ተራ / Satin Tera",
      "alternativeNames": [],
      "localizedNames": {
        "am": "ሳጥን ተራ",
        "en": "Satin Tera",
        "fr": "Satin Tera"
      },
      "coordinates": [
        38.7349734,
        9.0320302
      ],
      "address": null,
      "type": null
    },
    {
      "name": "ሰሃን ተራ / Sehan Tera",
      "alternativeNames": [],
      "localizedNames": {
        "am": "ሰሃን ተራ",
        "en": "Sehan Tera",
        "fr": "Sehan Tera"
      },
      "coordinates": [
        38.7354943,
        9.0314166
      ],
      "address": null,
      "type": null
    },
    {
      "name": "ጭድ ተራ አካባቢ",
      "alternativeNames": [],
      "localizedNames": {
        "en": "Chid Tera",
        "fr": "Chid Tera"
      },
      "coordinates": [
        38.7213287,
        9.0375307
      ],
      "address": null,
      "type": null
    },
    {
      "name": "አውቶብስ ተራ / Autobus Tera",
      "alternativeNames": [],
      "localizedNames": {
        "am": "አውቶብስ ተራ",
        "en": "Autobus Tera",
        "fr": "Autobus Tera"
      },
      "coordinates": [
        38.7322364,
        9.0339819
      ],
      "address": null,
      "type": null
    },
    {
      "name": "Quasmeda",
      "alternativeNames": [],
      "localizedNames": {
        "am": "ኳስ ሜዳ"
      },
      "coordinates": [
        38.727372,
        9.0378545
      ],
      "address": null,
      "type": null
    },
    {
      "name": "መድሃኒዓለም",
      "alternativeNames": [],
      "localizedNames": {
        "en": "Medhanialem",
        "fr": "Medhanialem"
      },
      "coordinates": [
        38.7215543,
        9.0518019
      ],
      "address": null,
      "type": null
    },
    {
      "name": "ፓስተር",
      "alternativeNames": [],
      "localizedNames": {
        "en": "Paster",
        "fr": "Paster"
      },
      "coordinates": [
        38.7318682,
        9.0463648
      ],
      "address": null,
      "type": null
    },
    {
      "name": "ኮልፌ ታይዋን አካባቢ",
      "alternativeNames": [],
      "localizedNames": {
        "en": "Kolfe Tiwan",
        "fr": "Kolfe Tiwan"
      },
      "coordinates": [
        38.718311,
        9.0443597
      ],
      "address": null,
      "type": null
    },
    {
      "name": "ምንጣፍ ተራ",
      "alternativeNames": [],
      "localizedNames": {
        "en": "Mentaf Tera",
        "fr": "Mentaf Tera"
      },
      "coordinates": [
        38.7405611,
        9.0317311
      ],
      "address": null,
      "type": null
    },
    {
      "name": "ፍራሽ ተራ",
      "alternativeNames": [],
      "localizedNames": {
        "en": "Ferash Tera",
        "fr": "Ferash Tera"
      },
      "coordinates": [
        38.7406051,
        9.0309941
      ],
      "address": null,
      "type": null
    },
    {
      "name": "ሻንጣ ተራ",
      "alternativeNames": [],
      "localizedNames": {
        "en": "Shanta Tera",
        "fr": "Shanta Tera"
      },
      "coordinates": [
        38.7393048,
        9.031123
      ],
      "address": null,
      "type": null
    },
    {
      "name": "ዱባይ ተራ / Dubai Tera",
      "alternativeNames": [],
      "localizedNames": {
        "am": "ዱባይ ተራ",
        "en": "Dubai Tera",
        "fr": "Dubai Tera"
      },
      "coordinates": [
        38.738233,
        9.0313013
      ],
      "address": null,
      "type": null
    },
    {
      "name": "አትክልት ተራ",
      "alternativeNames": [],
      "localizedNames": {
        "en": "Atekelet Tera",
        "fr": "Atekelet Tera"
      },
      "coordinates": [
        38.7480673,
        9.0344589
      ],
      "address": null,
      "type": null
    },
    {
      "name": "Military Tera",
      "alternativeNames": [],
      "localizedNames": {
        "am": "ሚሊተሪ ተራ"
      },
      "coordinates": [
        38.7387652,
        9.0317475
      ],
      "address": null,
      "type": null
    },
    {
      "name": "ጎጃም በረንዳ / Gojjam Berenda",
      "alternativeNames": [],
      "localizedNames": {
        "am": "ጎጃም በረንዳ",
        "en": "Gojjam Berenda",
        "fr": "Gojjam Berenda"
      },
      "coordinates": [
        38.7399116,
        9.0349351
      ],
      "address": null,
      "type": null
    },
    {
      "name": "ቢስ መብራት / Biss Meberat",
      "alternativeNames": [],
      "localizedNames": {
        "en": "Biss Meberat",
        "fr": "Biss Meberat"
      },
      "coordinates": [
        38.7460543,
        9.0348581
      ],
      "address": null,
      "type": null
    },
    {
      "name": "ሲኒማ ራስ / Cinema Ras",
      "alternativeNames": [],
      "localizedNames": {
        "am": "ሲኒማ ራስ",
        "en": "Cinema Ras"
      },
      "coordinates": [
        38.7412116,
        9.0307801
      ],
      "address": null,
      "type": "amenity:cinema"
    },
    {
      "name": "ሃብተጊዮርጊስ ድልድይ",
      "alternativeNames": [],
      "localizedNames": {
        "en": "Habete Giorgis",
        "fr": "Habete Giorgis"
      },
      "coordinates": [
        38.7435406,
        9.0340299
      ],
      "address": null,
      "type": null
    },
    {
      "name": "አሜሪካን ጊቢ",
      "alternativeNames": [],
      "localizedNames": {
        "en": "American Gibi",
        "fr": "American Gibi"
      },
      "coordinates": [
        38.7423939,
        9.0323031
      ],
      "address": null,
      "type": null
    },
    {
      "name": "አባኮራን ሰፈር",
      "alternativeNames": [],
      "localizedNames": {
        "en": "Abacoran Sefer",
        "fr": "Abacoran Sefer"
      },
      "coordinates": [
        38.7399483,
        9.0404672
      ],
      "address": null,
      "type": null
    },
    {
      "name": "ጣሊያን ሰፈር",
      "alternativeNames": [],
      "localizedNames": {
        "en": "Taliyan Sefer",
        "fr": "Taliyan Sefer"
      },
      "coordinates": [
        38.7474715,
        9.0362835
      ],
      "address": null,
      "type": null
    },
    {
      "name": "ሰባራ ባቡር",
      "alternativeNames": [],
      "localizedNames": {
        "en": "Sebara Babur",
        "fr": "Sebara Babur"
      },
      "coordinates": [
        38.7480778,
        9.0386891
      ],
      "address": null,
      "type": null
    },
    {
      "name": "ጨው በረንዳ",
      "alternativeNames": [],
      "localizedNames": {
        "en": "Chew Berenda",
        "fr": "Chew Berenda"
      },
      "coordinates": [
        38.73822,
        9.0369688
      ],
      "address": null,
      "type": null
    },
    {
      "name": "ዶሮ ማነቂያ",
      "alternativeNames": [],
      "localizedNames": {
        "en": "Doro Manekiya",
        "fr": "Doro Manekiya"
      },
      "coordinates": [
        38.7517455,
        9.0345535
      ],
      "address": null,
      "type": null
    },
    {
      "name": "ሰራተኛ ሰፈር",
      "alternativeNames": [],
      "localizedNames": {
        "en": "Serategna Sefer",
        "fr": "Serategna Sefer"
      },
      "coordinates": [
        38.755874,
        9.0320404
      ],
      "address": null,
      "type": null
    },
    {
      "name": "Abune Petros",
      "alternativeNames": [],
      "localizedNames": {
        "am": "አቡነ ጴጥሮስ",
        "en": "Abune Petros አቡነ ጴጥሮስ"
      },
      "coordinates": [
        38.7496238,
        9.0354287
      ],
      "address": null,
      "type": null
    },
    {
      "name": "Minelik II",
      "alternativeNames": [],
      "localizedNames": {
        "am": "ዳግማዊ ምኒሊክ",
        "en": "Minilik ll Square"
      },
      "coordinates": [
        38.7523903,
        9.035851
      ],
      "address": null,
      "type": null
    },
    {
      "name": "ፒያሳ አካባቢ",
      "alternativeNames": [],
      "localizedNames": {
        "en": "Piassa (piazza)",
        "fr": "Piassa (piazza)"
      },
      "coordinates": [
        38.7547538,
        9.0336984
      ],
      "address": null,
      "type": null
    },
    {
      "name": "ውቤ በረሃ",
      "alternativeNames": [],
      "localizedNames": {
        "en": "Webe Berha",
        "fr": "Webe Berha"
      },
      "coordinates": [
        38.7540035,
        9.0410344
      ],
      "address": null,
      "type": null
    },
    {
      "name": "ራስ መኮንን ድልድይ",
      "alternativeNames": [],
      "localizedNames": {
        "en": "Ras Mekonnen Deldey",
        "fr": "Ras Mekonnen Deldey"
      },
      "coordinates": [
        38.7563453,
        9.0396701
      ],
      "address": null,
      "type": null
    },
    {
      "name": "ጊዮርጊስ",
      "alternativeNames": [],
      "localizedNames": {
        "en": "Giorgis",
        "fr": "Giorgis"
      },
      "coordinates": [
        38.7523813,
        9.0359666
      ],
      "address": null,
      "type": null
    },
    {
      "name": "ገዳም ሰፈር",
      "alternativeNames": [],
      "localizedNames": {
        "en": "Gedam Seffer",
        "fr": "Gedam Seffer"
      },
      "coordinates": [
        38.7502818,
        9.0389427
      ],
      "address": null,
      "type": null
    },
    {
      "name": "ዮሃንስ",
      "alternativeNames": [],
      "localizedNames": {
        "en": "Yohannes",
        "fr": "Yohannes"
      },
      "coordinates": [
        38.7456732,
        9.0428872
      ],
      "address": null,
      "type": null
    },
    {
      "name": "ዳትሰን ሰፈር",
      "alternativeNames": [],
      "localizedNames": {
        "en": "Datsun Sefer",
        "fr": "Datsun Sefer"
      },
      "coordinates": [
        38.7473538,
        9.0434883
      ],
      "address": null,
      "type": null
    },
    {
      "name": "እንቁላል ፋብሪካ / Enqulal Faberika",
      "alternativeNames": [],
      "localizedNames": {
        "en": "Enqulal Faberika",
        "fr": "Enqulal Faberika"
      },
      "coordinates": [
        38.7378125,
        9.0488952
      ],
      "address": null,
      "type": null
    },
    {
      "name": "ሾላ",
      "alternativeNames": [],
      "localizedNames": {
        "en": "Shola",
        "fr": "Shola"
      },
      "coordinates": [
        38.7463508,
        9.0482558
      ],
      "address": null,
      "type": null
    },
    {
      "name": "መስቀል ፍላወር",
      "alternativeNames": [],
      "localizedNames": {
        "en": "Meskel Flower",
        "fr": "Meskel Flower"
      },
      "coordinates": [
        38.7642638,
        8.9880118
      ],
      "address": null,
      "type": null
    },
    {
      "name": "ቦሌ ሚካኤል አካባቢ",
      "alternativeNames": [],
      "localizedNames": {
        "en": "Bole Mikael",
        "fr": "Bole Mikael"
      },
      "coordinates": [
        38.7747557,
        8.9807969
      ],
      "address": null,
      "type": null
    },
    {
      "name": "ሩዋንዳ / Rwanda",
      "alternativeNames": [],
      "localizedNames": {
        "en": "Rwanda",
        "fr": "Rwanda"
      },
      "coordinates": [
        38.7793214,
        8.9917947
      ],
      "address": null,
      "type": null
    },
    {
      "name": "ወሎ ሰፈር አካባቢ",
      "alternativeNames": [],
      "localizedNames": {
        "en": "Wello Sefer",
        "fr": "Wello Sefer"
      },
      "coordinates": [
        38.774558,
        8.9934694
      ],
      "address": null,
      "type": null
    },
    {
      "name": "ኦሎምፒያ",
      "alternativeNames": [],
      "localizedNames": {
        "en": "Olympia",
        "fr": "Olympia"
      },
      "coordinates": [
        38.7681189,
        9.0039145
      ],
      "address": null,
      "type": null
    },
    {
      "name": "አዋሬ Aware",
      "alternativeNames": [],
      "localizedNames": {
        "am": "አዋሬ",
        "en": "Aware",
        "fr": "Aware"
      },
      "coordinates": [
        38.7754628,
        9.0270604
      ],
      "address": null,
      "type": null
    },
    {
      "name": "እንደራሴ Enderase",
      "alternativeNames": [],
      "localizedNames": {
        "am": "እንደራሴ",
        "en": "Enderase",
        "fr": "Enderase"
      },
      "coordinates": [
        38.7763783,
        9.0175028
      ],
      "address": null,
      "type": null
    },
    {
      "name": "እሪ በከንቱ አካባቢ",
      "alternativeNames": [],
      "localizedNames": {
        "en": "Eri Bekentu",
        "fr": "Eri Bekentu"
      },
      "coordinates": [
        38.7601833,
        9.0289421
      ],
      "address": null,
      "type": null
    },
    {
      "name": "መገናኛ",
      "alternativeNames": [],
      "localizedNames": {
        "en": "Megenagna",
        "fr": "Megenagna"
      },
      "coordinates": [
        38.8016732,
        9.0196149
      ],
      "address": null,
      "type": null
    },
    {
      "name": "Shola open air market",
      "alternativeNames": [],
      "localizedNames": {
        "am": "ሾላ ገበያ"
      },
      "coordinates": [
        38.7948135,
        9.024092
      ],
      "address": null,
      "type": "amenity:marketplace"
    },
    {
      "name": "አስኮ ብርጭቆ ፋብሪካ አካባቢ / Asko Bercheko Faberika Area",
      "alternativeNames": [],
      "localizedNames": {
        "en": "Asko Bercheko Faberika Area",
        "fr": "Asko Bercheko Faberika Area"
      },
      "coordinates": [
        38.6991197,
        9.0631738
      ],
      "address": null,
      "type": null
    },
    {
      "name": "አባዲና አካባቢ",
      "alternativeNames": [],
      "localizedNames": {
        "en": "Abadina Area",
        "fr": "Abadina Area"
      },
      "coordinates": [
        38.7346257,
        9.0535999
      ],
      "address": null,
      "type": null
    },
    {
      "name": "ሩፋኤል አካባቢ",
      "alternativeNames": [],
      "localizedNames": {
        "en": "Rufael",
        "fr": "Rufael"
      },
      "coordinates": [
        38.7273977,
        9.0587005
      ],
      "address": null,
      "type": null
    },
    {
      "name": "ዊንጌት",
      "alternativeNames": [],
      "localizedNames": {
        "en": "Winget",
        "fr": "Winget"
      },
      "coordinates": [
        38.7133909,
        9.0568107
      ],
      "address": null,
      "type": null
    },
    {
      "name": "Semien Mezegaja | ሰሜን መዘጋጃ",
      "alternativeNames": [],
      "localizedNames": {
        "en": "Semien Mezegaja",
        "fr": "Semien Mezegaja"
      },
      "coordinates": [
        38.7423862,
        9.0533673
      ],
      "address": null,
      "type": null
    },
    {
      "name": "አዲሱ ገበያ",
      "alternativeNames": [],
      "localizedNames": {
        "en": "Addisu Gebeya"
      },
      "coordinates": [
        38.7372656,
        9.0595918
      ],
      "address": null,
      "type": "amenity:marketplace"
    },
    {
      "name": "አስኮ አካባቢ",
      "alternativeNames": [],
      "localizedNames": {
        "en": "Asko Area",
        "fr": "Asko Area"
      },
      "coordinates": [
        38.6934573,
        9.06591
      ],
      "address": null,
      "type": null
    },
    {
      "name": "ለቡ",
      "alternativeNames": [],
      "localizedNames": {
        "en": "Lebu",
        "fr": "Lebu"
      },
      "coordinates": [
        38.7254213,
        8.9611369
      ],
      "address": null,
      "type": null
    },
    {
      "name": "ላፍቶ",
      "alternativeNames": [],
      "localizedNames": {
        "en": "Lafto",
        "fr": "Lafto"
      },
      "coordinates": [
        38.7443279,
        8.9470577
      ],
      "address": null,
      "type": null
    },
    {
      "name": "ገርጂ አካባቢ",
      "alternativeNames": [],
      "localizedNames": {
        "en": "Gerji",
        "fr": "Gerji"
      },
      "coordinates": [
        38.8094849,
        8.9953787
      ],
      "address": null,
      "type": null
    },
    {
      "name": "የካ",
      "alternativeNames": [],
      "localizedNames": {
        "en": "Yeka",
        "fr": "Yeka"
      },
      "coordinates": [
        38.7988485,
        9.0243483
      ],
      "address": null,
      "type": null
    },
    {
      "name": "አያት",
      "alternativeNames": [],
      "localizedNames": {
        "en": "Ayat",
        "fr": "Ayat"
      },
      "coordinates": [
        38.8460555,
        9.0345734
      ],
      "address": null,
      "type": null
    },
    {
      "name": "ኮተቤ",
      "alternativeNames": [],
      "localizedNames": {
        "en": "Kotebe",
        "fr": "Kotebe"
      },
      "coordinates": [
        38.8398518,
        9.0371282
      ],
      "address": null,
      "type": null
    },
    {
      "name": "ካራ አሎ",
      "alternativeNames": [],
      "localizedNames": {
        "en": "Kara Alo",
        "fr": "Kara Alo"
      },
      "coordinates": [
        38.8513369,
        9.0392915
      ],
      "address": null,
      "type": null
    },
    {
      "name": "ቦሌ አያት",
      "alternativeNames": [],
      "localizedNames": {
        "en": "Bole Ayat",
        "fr": "Bole Ayat"
      },
      "coordinates": [
        38.8623947,
        9.0384153
      ],
      "address": null,
      "type": null
    },
    {
      "name": "ካራ - Kara",
      "alternativeNames": [],
      "localizedNames": {
        "en": "Kara",
        "fr": "Kara"
      },
      "coordinates": [
        38.8609587,
        9.0419211
      ],
      "address": null,
      "type": null
    },
    {
      "name": "Top View",
      "alternativeNames": [],
      "localizedNames": {
        "am": "ቶፕ ቪው"
      },
      "coordinates": [
        38.8034251,
        9.022483
      ],
      "address": null,
      "type": "amenity:restaurant"
    },
    {
      "name": "Wim's Holland House",
      "alternativeNames": [],
      "localizedNames": {},
      "coordinates": [
        38.755297,
        9.009824
      ],
      "address": null,
      "type": "amenity:pub"
    },
    {
      "name": "Mesalemia Area Police",
      "alternativeNames": [],
      "localizedNames": {
        "am": "መሳለሚያ አካባቢ ፖሊስ ጣቢያ"
      },
      "coordinates": [
        38.7254941,
        9.032998
      ],
      "address": null,
      "type": "amenity:police"
    },
    {
      "name": "Medhanialem Area Police",
      "alternativeNames": [],
      "localizedNames": {
        "am": "መድኃኒዓለም አካባቢ ፖሊስ ጣቢያ"
      },
      "coordinates": [
        38.7257655,
        9.0506354
      ],
      "address": null,
      "type": "amenity:police"
    },
    {
      "name": "Kebele 24",
      "alternativeNames": [],
      "localizedNames": {
        "am": "ቀበሌ 24 ቤተ መፃህፍት"
      },
      "coordinates": [
        38.734786,
        9.0429478
      ],
      "address": null,
      "type": "amenity:library"
    },
    {
      "name": "Yohannes Area Police",
      "alternativeNames": [],
      "localizedNames": {
        "am": "የዮሃንስ አካባቢ ፖሊስ"
      },
      "coordinates": [
        38.7436298,
        9.0457306
      ],
      "address": null,
      "type": "amenity:police"
    },
    {
      "name": "Addisu Gebeya Area Police | አዲሱ ገበያ አካባቢ ፖሊስ",
      "alternativeNames": [],
      "localizedNames": {
        "am": "አዲሱ ገበያ አካባቢ ፖሊስ"
      },
      "coordinates": [
        38.740055,
        9.057157
      ],
      "address": null,
      "type": "amenity:police"
    },
    {
      "name": "Total",
      "alternativeNames": [],
      "localizedNames": {
        "am": "ቶታል"
      },
      "coordinates": [
        38.7476556,
        9.038971
      ],
      "address": null,
      "type": "amenity:fuel"
    },
    {
      "name": "Legehar Police Station",
      "alternativeNames": [],
      "localizedNames": {
        "am": "ለገሃር አካባቢ ፖሊስ ጣቢያ",
        "en": "Legehar Area Police Station"
      },
      "coordinates": [
        38.7517682,
        9.0143122
      ],
      "address": null,
      "type": "amenity:police"
    },
    {
      "name": "Namrud Cafe",
      "alternativeNames": [],
      "localizedNames": {},
      "coordinates": [
        38.7526317,
        9.0322387
      ],
      "address": null,
      "type": "amenity:cafe"
    },
    {
      "name": "Libyan Embassy - ሊቢያ ኤምባሲ",
      "alternativeNames": [],
      "localizedNames": {
        "am": "ሊቢያ ኤምባሲ",
        "en": "Libyan Embassy",
        "fr": "Ambassade de Lybie",
        "zh": "利比亚大使馆"
      },
      "coordinates": [
        38.7513027,
        9.0188822
      ],
      "address": null,
      "type": "office:diplomatic"
    },
    {
      "name": "Birhan Ethiopia",
      "alternativeNames": [],
      "localizedNames": {
        "am": "ብርሃን ኢትዮጵያ"
      },
      "coordinates": [
        38.7572477,
        9.0368157
      ],
      "address": null,
      "type": "amenity:school"
    },
    {
      "name": "Dembel Area Police",
      "alternativeNames": [],
      "localizedNames": {
        "am": "ደምበል አካባቢ ፖሊስ"
      },
      "coordinates": [
        38.766296,
        9.001855
      ],
      "address": null,
      "type": "amenity:police"
    },
    {
      "name": "Kazanchiz Area Police",
      "alternativeNames": [],
      "localizedNames": {
        "am": "ካዛንቺዝ አካባቢ ፖሊስ"
      },
      "coordinates": [
        38.7742082,
        9.01314
      ],
      "address": null,
      "type": "amenity:police"
    },
    {
      "name": "Post",
      "alternativeNames": [],
      "localizedNames": {
        "am": "ፖስታ ቤት"
      },
      "coordinates": [
        38.77175,
        9.016108
      ],
      "address": null,
      "type": "amenity:post_office"
    },
    {
      "name": "Apple Internet Cafe",
      "alternativeNames": [],
      "localizedNames": {
        "am": "አፕል ኢንተርኔት ካፌ"
      },
      "coordinates": [
        38.7863823,
        8.9895308
      ],
      "address": null,
      "type": null
    },
    {
      "name": "Yecis Internet Cafe",
      "alternativeNames": [],
      "localizedNames": {
        "am": "የሲስ ኢንተርኔት ካፌ"
      },
      "coordinates": [
        38.7871838,
        8.989311
      ],
      "address": null,
      "type": null
    },
    {
      "name": "Pro Tech Internet Cafe",
      "alternativeNames": [],
      "localizedNames": {
        "am": "ፕሮ ቴክ ኢንተርኔት ካፌ"
      },
      "coordinates": [
        38.7870645,
        8.9892696
      ],
      "address": null,
      "type": null
    },
    {
      "name": "EasyNet Internet Cafe",
      "alternativeNames": [],
      "localizedNames": {
        "am": "ኢዚይኔት ኢንተርኔት ካፌ"
      },
      "coordinates": [
        38.7832359,
        8.991604
      ],
      "address": null,
      "type": null
    },
    {
      "name": "DH Geda Tower Broadband Internet",
      "alternativeNames": [],
      "localizedNames": {
        "am": "ዲ.ኤች.ገዳ ታወር ብሮድ ባንድ ኢንተርኔት"
      },
      "coordinates": [
        38.7865405,
        8.9896918
      ],
      "address": null,
      "type": null
    },
    {
      "name": "ABH Business Center",
      "alternativeNames": [],
      "localizedNames": {
        "am": "ኤ.ቢ.ኤች. የቢዝነስ ማዕከል"
      },
      "coordinates": [
        38.7917909,
        8.9885298
      ],
      "address": null,
      "type": null
    },
    {
      "name": "Eyerusalem Beauty Spot",
      "alternativeNames": [],
      "localizedNames": {
        "am": "እየሩሳሌም የውበት ሳሎን"
      },
      "coordinates": [
        38.7928,
        8.99
      ],
      "address": null,
      "type": "shop:hairdresser"
    },
    {
      "name": "Archies Gallery Giftshop",
      "alternativeNames": [],
      "localizedNames": {
        "am": "አርቺስ ጋለሪ"
      },
      "coordinates": [
        38.7928054,
        8.9906207
      ],
      "address": null,
      "type": "shop:florist"
    },
    {
      "name": "Addis Business Center",
      "alternativeNames": [],
      "localizedNames": {
        "am": "አዲስ ቢዝነስ ሴንተር"
      },
      "coordinates": [
        38.7533345,
        9.0351582
      ],
      "address": null,
      "type": null
    },
    {
      "name": "Elsa Business Center",
      "alternativeNames": [],
      "localizedNames": {
        "am": "ኤልሳ ቢዝነስ ሴንተር"
      },
      "coordinates": [
        38.7533058,
        9.0351518
      ],
      "address": null,
      "type": null
    },
    {
      "name": "Surf Internet Cafe",
      "alternativeNames": [],
      "localizedNames": {
        "am": "ሰርፍ ኢንተርኔት ካፌ"
      },
      "coordinates": [
        38.7849943,
        8.9993193
      ],
      "address": null,
      "type": "amenity:internet_cafe"
    },
    {
      "name": "Dream Mobile",
      "alternativeNames": [],
      "localizedNames": {
        "am": "ድሪም ሞባይል"
      },
      "coordinates": [
        38.7694801,
        9.0022237
      ],
      "address": null,
      "type": null
    },
    {
      "name": "Embassy of Sweden",
      "alternativeNames": [],
      "localizedNames": {
        "am": "ስዊድን ኤምባሲ",
        "en": "Embassy of Sweden",
        "fr": "Ambassade de Suède",
        "sv": "Sveriges ambassad",
        "zh": "瑞典大使馆"
      },
      "coordinates": [
        38.7490532,
        9.0186591
      ],
      "address": null,
      "type": "office:diplomatic"
    },
    {
      "name": "Bole International Hotel",
      "alternativeNames": [],
      "localizedNames": {
        "am": "ቦሌ ኢንተርናሽናል ሆቴል"
      },
      "coordinates": [
        38.7914608,
        8.99251
      ],
      "address": null,
      "type": "tourism:hotel"
    },
    {
      "name": "Sami Leyou Kuret",
      "alternativeNames": [],
      "localizedNames": {
        "am": "ሳሚ ልዩ ቁርጥ"
      },
      "coordinates": [
        38.7913245,
        8.9931779
      ],
      "address": null,
      "type": "shop:butcher"
    },
    {
      "name": "Chinese Restaurant",
      "alternativeNames": [],
      "localizedNames": {
        "am": "ቻይኒስ ምግብ ቤት",
        "zh": "中国饭店"
      },
      "coordinates": [
        38.7911441,
        8.9934358
      ],
      "address": null,
      "type": "amenity:restaurant"
    },
    {
      "name": "National Library & Archives",
      "alternativeNames": [],
      "localizedNames": {
        "am": "ብሔራዊ ቤተ መጻሕፍትና ቤተ መዛግብት"
      },
      "coordinates": [
        38.7490296,
        9.0179281
      ],
      "address": null,
      "type": "amenity:library"
    },
    {
      "name": "Sheraton Addis ሸራተን አዲስ",
      "alternativeNames": [],
      "localizedNames": {
        "am": "ሸራተን አዲስ",
        "en": "Sheraton Addis"
      },
      "coordinates": [
        38.760014,
        9.0204224
      ],
      "address": null,
      "type": "tourism:hotel"
    },
    {
      "name": "Nifas Silk Lafto Sub City Police",
      "alternativeNames": [],
      "localizedNames": {
        "am": "ንፋስ ስልክ ላፍቶ ክ/ከተማ ፖሊስ"
      },
      "coordinates": [
        38.754852,
        8.980879
      ],
      "address": null,
      "type": "amenity:police"
    },
    {
      "name": "Kera Area Police",
      "alternativeNames": [],
      "localizedNames": {
        "am": "ቄራ አካባቢ ፖሊስ ጣቢያ"
      },
      "coordinates": [
        38.7489908,
        8.9865314
      ],
      "address": null,
      "type": "amenity:police"
    },
    {
      "name": "Popolary",
      "alternativeNames": [],
      "localizedNames": {
        "am": "ፖፖላሬ"
      },
      "coordinates": [
        38.7464808,
        9.0053857
      ],
      "address": null,
      "type": "shop:supermarket"
    },
    {
      "name": "Populare Police Station",
      "alternativeNames": [],
      "localizedNames": {
        "am": "ቂርቆስ አካባቢ ፖሊስ ጣቢያ"
      },
      "coordinates": [
        38.7518334,
        9.0050348
      ],
      "address": null,
      "type": "amenity:police"
    },
    {
      "name": "August",
      "alternativeNames": [],
      "localizedNames": {
        "am": "ኦገስት ካፌና ምግብ ቤት"
      },
      "coordinates": [
        38.746487,
        9.009175
      ],
      "address": null,
      "type": "amenity:cafe"
    },
    {
      "name": "Blues café",
      "alternativeNames": [],
      "localizedNames": {
        "am": "ብሉዝ ካፌ"
      },
      "coordinates": [
        38.7474568,
        9.0108303
      ],
      "address": null,
      "type": "amenity:cafe"
    },
    {
      "name": "Lombardia",
      "alternativeNames": [],
      "localizedNames": {
        "am": "ሎምባርዲያ ሬስቶራንት"
      },
      "coordinates": [
        38.7472885,
        9.0125264
      ],
      "address": null,
      "type": "amenity:restaurant"
    },
    {
      "name": "Lancha Area Police",
      "alternativeNames": [],
      "localizedNames": {
        "am": "ላንቻ አካባቢ ፖሊስ ጣቢያ"
      },
      "coordinates": [
        38.7606943,
        8.9900743
      ],
      "address": null,
      "type": "amenity:police"
    },
    {
      "name": "Ethio Supermarket",
      "alternativeNames": [],
      "localizedNames": {
        "am": "ኢትዮ ሱፐርማርኬት"
      },
      "coordinates": [
        38.7702967,
        8.9996487
      ],
      "address": null,
      "type": "shop:supermarket"
    },
    {
      "name": "New York Cafe & Restaurant",
      "alternativeNames": [],
      "localizedNames": {
        "am": "ኒውዮርክ ካፌና ሬስቶራንት"
      },
      "coordinates": [
        38.7689897,
        9.0021746
      ],
      "address": null,
      "type": "amenity:cafe"
    },
    {
      "name": "Family Restaurant Debre Zeit",
      "alternativeNames": [],
      "localizedNames": {
        "am": "ፋሚሊ ሬስቶራንት ደበረ ዘይት"
      },
      "coordinates": [
        38.7709612,
        9.0086405
      ],
      "address": null,
      "type": "amenity:restaurant"
    },
    {
      "name": "ኡራኤል Urael",
      "alternativeNames": [],
      "localizedNames": {
        "am": "ኡራኤል",
        "en": "Urael",
        "fr": "Urael"
      },
      "coordinates": [
        38.7750119,
        9.0109373
      ],
      "address": null,
      "type": null
    },
    {
      "name": "E.T.T.E. Duty free",
      "alternativeNames": [],
      "localizedNames": {},
      "coordinates": [
        38.79011,
        9.016784
      ],
      "address": null,
      "type": "shop:supermarket"
    },
    {
      "name": "Churchill Stationary Enterprise",
      "alternativeNames": [],
      "localizedNames": {
        "am": "ቸርችል የፅህፈት መሳሪያ ኢንተርፕራይዝ"
      },
      "coordinates": [
        38.7518999,
        9.0229531
      ],
      "address": null,
      "type": "shop:stationery"
    },
    {
      "name": "Raizel Cafe",
      "alternativeNames": [],
      "localizedNames": {
        "am": "ራዜል ካፌ"
      },
      "coordinates": [
        38.7546385,
        9.0331888
      ],
      "address": null,
      "type": "amenity:cafe"
    },
    {
      "name": "Total (NMC)",
      "alternativeNames": [],
      "localizedNames": {
        "am": "ቶታል"
      },
      "coordinates": [
        38.7448481,
        9.005008
      ],
      "address": null,
      "type": "amenity:fuel"
    },
    {
      "name": "Shebele Parking Slot",
      "alternativeNames": [],
      "localizedNames": {},
      "coordinates": [
        38.7464556,
        9.0119576
      ],
      "address": null,
      "type": "amenity:parking"
    },
    {
      "name": "Finfine Adarash Hotel",
      "alternativeNames": [],
      "localizedNames": {
        "am": "ፊንፊኔ አዳራሽ ሆቴል"
      },
      "coordinates": [
        38.7580648,
        9.017585
      ],
      "address": null,
      "type": "tourism:hotel"
    },
    {
      "name": "Post Office",
      "alternativeNames": [],
      "localizedNames": {
        "am": "ፖስታ ቤት"
      },
      "coordinates": [
        38.7606411,
        8.9741654
      ],
      "address": null,
      "type": "amenity:post_office"
    },
    {
      "name": "Commercial Bank of Ethiopia (Gofa Branch)",
      "alternativeNames": [],
      "localizedNames": {
        "am": "የኢትዮጵያ ንግድ ባንክ (ጎፋ ቅርንጫፍ)"
      },
      "coordinates": [
        38.7488699,
        8.9870836
      ],
      "address": null,
      "type": "amenity:bank"
    },
    {
      "name": "Global Hotel",
      "alternativeNames": [],
      "localizedNames": {
        "am": "ግሎባል ሆቴል"
      },
      "coordinates": [
        38.7598634,
        8.9937198
      ],
      "address": null,
      "type": "tourism:hotel"
    },
    {
      "name": "Centeral",
      "alternativeNames": [],
      "localizedNames": {
        "am": "ሴንትራል"
      },
      "coordinates": [
        38.7743298,
        8.9938912
      ],
      "address": null,
      "type": "shop:supermarket"
    },
    {
      "name": "Ups Express Sevice",
      "alternativeNames": [],
      "localizedNames": {},
      "coordinates": [
        38.7883494,
        8.9884022
      ],
      "address": null,
      "type": "amenity:post_office"
    },
    {
      "name": "St. Lideta Medical College",
      "alternativeNames": [],
      "localizedNames": {
        "am": "ቅድስት ልደታ ሜዲካል ኮሌጅ"
      },
      "coordinates": [
        38.7374146,
        9.0109518
      ],
      "address": null,
      "type": "amenity:college"
    },
    {
      "name": "Angla Burger",
      "alternativeNames": [],
      "localizedNames": {},
      "coordinates": [
        38.7829918,
        8.9903471
      ],
      "address": null,
      "type": "amenity:fast_food"
    },
    {
      "name": "La Parisienne Cafe (Bole)",
      "alternativeNames": [],
      "localizedNames": {
        "am": "ላ ፓሪዚያን ካፌ (ቦሌ)"
      },
      "coordinates": [
        38.7850841,
        8.9903385
      ],
      "address": null,
      "type": "amenity:cafe"
    },
    {
      "name": "German Restaurant",
      "alternativeNames": [],
      "localizedNames": {},
      "coordinates": [
        38.7832177,
        8.9903708
      ],
      "address": null,
      "type": "amenity:restaurant"
    },
    {
      "name": "Wub",
      "alternativeNames": [],
      "localizedNames": {
        "am": "ውብ ሕንፃ"
      },
      "coordinates": [
        38.7369279,
        8.9843793
      ],
      "address": null,
      "type": "amenity:public_building"
    },
    {
      "name": "Kobil",
      "alternativeNames": [],
      "localizedNames": {
        "am": "ኮቢል",
        "en": "Kobil ኮቢል"
      },
      "coordinates": [
        38.7590725,
        8.9833428
      ],
      "address": null,
      "type": "amenity:fuel"
    },
    {
      "name": "Indonesia Embassy",
      "alternativeNames": [],
      "localizedNames": {
        "am": "ኢንዶኔዢያ ኤምባሲ",
        "en": "Indonesia Embassy",
        "fr": "Ambassade d'Indonésie",
        "id": "Kedutaan Besar Republik Indonesia"
      },
      "coordinates": [
        38.7372344,
        8.9880679
      ],
      "address": null,
      "type": "office:diplomatic"
    },
    {
      "name": "Apostolic nunciature",
      "alternativeNames": [],
      "localizedNames": {
        "am": "ቫቲካን ኤምባሲ",
        "en": "Apostolic nunciature",
        "fr": "Nonciature apostolique"
      },
      "coordinates": [
        38.7362595,
        8.9887628
      ],
      "address": null,
      "type": "office:diplomatic"
    },
    {
      "name": "Dashen Bank (Kera Branch)",
      "alternativeNames": [],
      "localizedNames": {
        "am": "ዳሽን ባንክ (ቄራ ቅርንጫፍ)"
      },
      "coordinates": [
        38.7479408,
        8.9917686
      ],
      "address": null,
      "type": "amenity:bank"
    },
    {
      "name": "St. Mary Dental Clinic",
      "alternativeNames": [],
      "localizedNames": {
        "am": "ቅድስት ማርያም መለስተኛ የጥርስ ክሊኒክ"
      },
      "coordinates": [
        38.7556102,
        9.0315317
      ],
      "address": null,
      "type": "amenity:dentist"
    },
    {
      "name": "Yon Business Center",
      "alternativeNames": [],
      "localizedNames": {
        "am": "ዮን የንግድ ማእከል",
        "zh": "Yon 商业中心"
      },
      "coordinates": [
        38.7530984,
        9.0351328
      ],
      "address": null,
      "type": null
    },
    {
      "name": "Addis Business Center",
      "alternativeNames": [],
      "localizedNames": {
        "am": "አዲስ ቢዝነስ ሴንተር"
      },
      "coordinates": [
        38.7533345,
        9.0351581
      ],
      "address": null,
      "type": null
    },
    {
      "name": "Ghion Pharmacy",
      "alternativeNames": [],
      "localizedNames": {
        "am": "ዮን ቢዝነስ ሴንተር"
      },
      "coordinates": [
        38.7575924,
        9.0140113
      ],
      "address": null,
      "type": "amenity:pharmacy"
    },
    {
      "name": "Photo Life",
      "alternativeNames": [],
      "localizedNames": {
        "am": "ፎቶ ላይፍ"
      },
      "coordinates": [
        38.7569069,
        9.0148399
      ],
      "address": null,
      "type": null
    },
    {
      "name": "Commercial Bank Of Ethiopia",
      "alternativeNames": [],
      "localizedNames": {
        "am": "የኢትዮጵያ ንግድ ባንክ",
        "zh": "埃塞商业银行"
      },
      "coordinates": [
        38.7486874,
        9.0127767
      ],
      "address": null,
      "type": "amenity:bank"
    },
    {
      "name": "ጎንደር ሆቴል | Gonder Hotel",
      "alternativeNames": [],
      "localizedNames": {
        "am": "ጎንደር ሆስቴል",
        "en": "Gonder Hotel"
      },
      "coordinates": [
        38.7550055,
        9.0309919
      ],
      "address": null,
      "type": "tourism:hostel"
    },
    {
      "name": "ፒያሳ አራዳ ፖሊስ ጣቢያ",
      "alternativeNames": [],
      "localizedNames": {
        "en": "Piassa arada polis station"
      },
      "coordinates": [
        38.754817,
        9.0310545
      ],
      "address": null,
      "type": "amenity:police"
    },
    {
      "name": "Fraol Hotel",
      "alternativeNames": [],
      "localizedNames": {
        "am": "ፍራኦል ሆቴል"
      },
      "coordinates": [
        38.7496098,
        9.0429669
      ],
      "address": null,
      "type": "tourism:hotel"
    },
    {
      "name": "Italian School",
      "alternativeNames": [],
      "localizedNames": {
        "am": "የጣልያን ት/ቤት"
      },
      "coordinates": [
        38.7492284,
        9.0436185
      ],
      "address": null,
      "type": "amenity:school"
    },
    {
      "name": "Semien Hotel | ሰሜን ሆቴል",
      "alternativeNames": [],
      "localizedNames": {
        "am": "ሰሜን ሆቴል"
      },
      "coordinates": [
        38.7490072,
        9.0439996
      ],
      "address": null,
      "type": "tourism:hotel"
    },
    {
      "name": "AAU Faculty of Natural Scince",
      "alternativeNames": [],
      "localizedNames": {
        "am": "በአዲስ አበባ ዩኒቨርሲቲ የተፈጥሮ ሳይንስ  ት/ክፍል",
        "en": "በአዲስ አበባ ዩኒቨርሲቲ የተፈጥሮ ሳይንስ  ት/ክፍል"
      },
      "coordinates": [
        38.7635447,
        9.0338394
      ],
      "address": null,
      "type": "amenity:university"
    },
    {
      "name": "Cloud 9 Cafe and Restaurant",
      "alternativeNames": [],
      "localizedNames": {
        "am": "ክላውድ 9 ካፌና ሬስቶራንት"
      },
      "coordinates": [
        38.7694068,
        9.0023911
      ],
      "address": null,
      "type": "amenity:restaurant"
    },
    {
      "name": "Alem Business Center",
      "alternativeNames": [],
      "localizedNames": {
        "am": "አለም ቢዝነስ ሴንተር"
      },
      "coordinates": [
        38.7616042,
        9.0338254
      ],
      "address": null,
      "type": null
    },
    {
      "name": "እናት በዉጪ ሀገር ስራና ሰራተኛ አገናኝ ኤጀንት",
      "alternativeNames": [],
      "localizedNames": {
        "am": "እናት በዉጪ ሀገር ስራና ሰራተኛ አገናኝ ኤጀንት"
      },
      "coordinates": [
        38.7874565,
        9.0153697
      ],
      "address": null,
      "type": null
    },
    {
      "name": "Universal Translation Office",
      "alternativeNames": [],
      "localizedNames": {
        "am": "ዩኒቨርሳል የትርጉም ስራ"
      },
      "coordinates": [
        38.7568047,
        9.0123861
      ],
      "address": null,
      "type": null
    },
    {
      "name": "Bruno's Ice Cream (Ice Cafe)",
      "alternativeNames": [],
      "localizedNames": {
        "am": "ብሩኖ አይስ ክሬም(አይስ ካፌ)"
      },
      "coordinates": [
        38.7920233,
        8.9960727
      ],
      "address": null,
      "type": "amenity:cafe"
    },
    {
      "name": "C62 Communications",
      "alternativeNames": [],
      "localizedNames": {
        "am": "ሲ62 ኮምኒኬሽን"
      },
      "coordinates": [
        38.791752,
        8.98845
      ],
      "address": null,
      "type": null
    },
    {
      "name": "Zi Place",
      "alternativeNames": [],
      "localizedNames": {
        "am": "ዜድአይ ፕሌስ"
      },
      "coordinates": [
        38.7930004,
        8.9897501
      ],
      "address": null,
      "type": "amenity:fast_food"
    },
    {
      "name": "Hibret Machin Tools Enginering Complex",
      "alternativeNames": [],
      "localizedNames": {
        "am": "ሕብር"
      },
      "coordinates": [
        38.7419597,
        9.0064628
      ],
      "address": null,
      "type": "amenity:college"
    },
    {
      "name": "Mudaser Shop",
      "alternativeNames": [],
      "localizedNames": {
        "am": "ሙደሲር ሱቅ"
      },
      "coordinates": [
        38.7524084,
        9.0251998
      ],
      "address": null,
      "type": "shop:kiosk"
    },
    {
      "name": "Ethio Sound",
      "alternativeNames": [],
      "localizedNames": {
        "am": "ኢትዮ ሳውንድ"
      },
      "coordinates": [
        38.7626988,
        9.0126669
      ],
      "address": null,
      "type": null
    },
    {
      "name": "KG Corner ኬጂ ኮርነር",
      "alternativeNames": [],
      "localizedNames": {
        "am": "ኬጂ ኮርነር"
      },
      "coordinates": [
        38.7540101,
        9.031249
      ],
      "address": null,
      "type": "amenity:restaurant"
    },
    {
      "name": "Police Station",
      "alternativeNames": [],
      "localizedNames": {},
      "coordinates": [
        38.7811291,
        9.0121171
      ],
      "address": null,
      "type": "amenity:police"
    },
    {
      "name": "Yod Abyssinia Traditional Restaurant",
      "alternativeNames": [],
      "localizedNames": {
        "am": "ዮድ አቢሲኒያ የባህል ሬስቶራንት"
      },
      "coordinates": [
        38.7934958,
        8.991249
      ],
      "address": null,
      "type": "amenity:restaurant"
    },
    {
      "name": "Time Out Cafe",
      "alternativeNames": [],
      "localizedNames": {
        "am": "ታይምአውት ካፌ"
      },
      "coordinates": [
        38.7907521,
        8.9886301
      ],
      "address": null,
      "type": "amenity:cafe"
    },
    {
      "name": "Building Material Shop",
      "alternativeNames": [],
      "localizedNames": {
        "am": "ዱኢትዩርስልፍ"
      },
      "coordinates": [
        38.792647,
        8.9898182
      ],
      "address": null,
      "type": "shop:doityourself"
    },
    {
      "name": "Milan Burger",
      "alternativeNames": [],
      "localizedNames": {
        "am": "ሚላን በርግር"
      },
      "coordinates": [
        38.792531,
        8.9899598
      ],
      "address": null,
      "type": "amenity:fast_food"
    },
    {
      "name": "Square Garden",
      "alternativeNames": [],
      "localizedNames": {},
      "coordinates": [
        38.7616972,
        9.0114271
      ],
      "address": null,
      "type": "amenity:cafe"
    },
    {
      "name": "ኤግዚቢሽን ማዕከል ዋና መግቢያ",
      "alternativeNames": [],
      "localizedNames": {
        "am": "ኤግዚቢሽን ማዕከል ዋና መግቢያ",
        "en": "Exhibition Centre Main Gate",
        "es": "Puerta Principal del Centro de Exposiciones"
      },
      "coordinates": [
        38.7620858,
        9.0093789
      ],
      "address": null,
      "type": null
    },
    {
      "name": "Amsterdam Bar and Restaurant",
      "alternativeNames": [],
      "localizedNames": {
        "am": "አምስተርዳም ባርና ሬስቶራንት",
        "en": "አምስተርዳም ባርና ሬስቶራንት"
      },
      "coordinates": [
        38.7885443,
        8.988514
      ],
      "address": null,
      "type": "amenity:restaurant"
    },
    {
      "name": "Rooftop Restaurant",
      "alternativeNames": [],
      "localizedNames": {
        "am": "ሩፍቶፕ ሬስቶራንት",
        "en": "ሩፍቶፕ ሬስቶራንት"
      },
      "coordinates": [
        38.7919603,
        8.988449
      ],
      "address": null,
      "type": "amenity:restaurant"
    },
    {
      "name": "Roba Dabo",
      "alternativeNames": [],
      "localizedNames": {
        "am": "ሮባ ዳቦ ቤት"
      },
      "coordinates": [
        38.8133398,
        8.99463
      ],
      "address": null,
      "type": "shop:bakery"
    },
    {
      "name": "Rose Academy",
      "alternativeNames": [],
      "localizedNames": {
        "am": "ሮዝ አካዳሚ"
      },
      "coordinates": [
        38.7925203,
        8.9952903
      ],
      "address": null,
      "type": "amenity:kindergarten"
    },
    {
      "name": "Ghion Hotel",
      "alternativeNames": [],
      "localizedNames": {
        "am": "ጊዮን ሆቴል"
      },
      "coordinates": [
        38.760304,
        9.0137992
      ],
      "address": null,
      "type": "tourism:hotel"
    },
    {
      "name": "Serbia Embassy",
      "alternativeNames": [],
      "localizedNames": {
        "am": "ሰርቢያ ኢምባሲ",
        "en": "Serbia Embassy",
        "fr": "Ambassade de Serbie",
        "sr": "Амбасада Републике Србије"
      },
      "coordinates": [
        38.7670574,
        9.0170044
      ],
      "address": "Joseph Tito Street",
      "type": "office:diplomatic"
    },
    {
      "name": "Yeka Sub City Police",
      "alternativeNames": [],
      "localizedNames": {
        "am": "የካ ክፍለ ከተማ ፖሊስ ጣቢያ"
      },
      "coordinates": [
        38.795607,
        9.0245464
      ],
      "address": null,
      "type": "amenity:police"
    },
    {
      "name": "Ebenezer Hotel & Guest House",
      "alternativeNames": [],
      "localizedNames": {
        "am": "አቤኔዘር የእንግዳ ማረፊያ"
      },
      "coordinates": [
        38.773138,
        9.0326162
      ],
      "address": null,
      "type": "tourism:guest_house"
    },
    {
      "name": "Nigat & her family",
      "alternativeNames": [],
      "localizedNames": {
        "am": "ንጋት እና ቤተሰቦቿ ሕንፃ"
      },
      "coordinates": [
        38.7746227,
        9.0324178
      ],
      "address": null,
      "type": null
    },
    {
      "name": "Hirut",
      "alternativeNames": [],
      "localizedNames": {
        "am": "ሂሩት ሱፐርማርኬት"
      },
      "coordinates": [
        38.7757919,
        9.0324825
      ],
      "address": null,
      "type": "shop:supermarket"
    },
    {
      "name": "Lidya Cafe",
      "alternativeNames": [],
      "localizedNames": {
        "am": "ሊዲያ ካፌ"
      },
      "coordinates": [
        38.774567,
        9.032444
      ],
      "address": null,
      "type": "amenity:cafe"
    },
    {
      "name": "Belair Hotel",
      "alternativeNames": [],
      "localizedNames": {
        "am": "ቤልኤር ሆቴል"
      },
      "coordinates": [
        38.7748257,
        9.0309271
      ],
      "address": null,
      "type": "tourism:hotel"
    },
    {
      "name": "Post",
      "alternativeNames": [],
      "localizedNames": {
        "am": "ፖስታ ቤት"
      },
      "coordinates": [
        38.7318051,
        9.0370124
      ],
      "address": null,
      "type": "amenity:post_office"
    },
    {
      "name": "ፖስታ ቤት ፓውሎስ ቅርንጫፍ",
      "alternativeNames": [],
      "localizedNames": {
        "am": "ፖስታ ቤት",
        "en": "Post Office St Paul's Branch"
      },
      "coordinates": [
        38.7255989,
        9.0496298
      ],
      "address": "GL_09_1971 St.",
      "type": "amenity:post_office"
    },
    {
      "name": "Post",
      "alternativeNames": [],
      "localizedNames": {
        "am": "ፖስታ ቤት"
      },
      "coordinates": [
        38.7630255,
        9.0331819
      ],
      "address": null,
      "type": "amenity:post_office"
    },
    {
      "name": "Zemen Bank",
      "alternativeNames": [],
      "localizedNames": {
        "am": "ዘመን ባንክ"
      },
      "coordinates": [
        38.7666261,
        9.0168438
      ],
      "address": null,
      "type": "amenity:bank"
    },
    {
      "name": "Aseb Qestedamena Hotel",
      "alternativeNames": [],
      "localizedNames": {
        "am": "አሰብ ቀስተዳመና ሆቴል"
      },
      "coordinates": [
        38.7707264,
        9.0157212
      ],
      "address": null,
      "type": "tourism:hotel"
    },
    {
      "name": "Hanane Beker",
      "alternativeNames": [],
      "localizedNames": {
        "am": "ሀናን ዳቦ መጋገሪያ",
        "en": "Hanan Bakery"
      },
      "coordinates": [
        38.7706317,
        9.0157695
      ],
      "address": null,
      "type": "shop:bakery"
    },
    {
      "name": "Kazanchis Pharmacy",
      "alternativeNames": [],
      "localizedNames": {
        "am": "ካሳንችስ መዳኒት ቤት"
      },
      "coordinates": [
        38.7711602,
        9.0154353
      ],
      "address": null,
      "type": "amenity:pharmacy"
    },
    {
      "name": "Lavera Cafe",
      "alternativeNames": [],
      "localizedNames": {
        "am": "ላቬራ ካፌ"
      },
      "coordinates": [
        38.7711037,
        9.0154677
      ],
      "address": null,
      "type": "amenity:cafe"
    },
    {
      "name": "Harar Ber Hotel",
      "alternativeNames": [],
      "localizedNames": {
        "am": "ሀረር በር ሆቴል"
      },
      "coordinates": [
        38.7709433,
        9.0155824
      ],
      "address": null,
      "type": "tourism:hotel"
    },
    {
      "name": "Oscar Cafe",
      "alternativeNames": [],
      "localizedNames": {
        "am": "ኦስካር ካፌ"
      },
      "coordinates": [
        38.771067,
        9.0154979
      ],
      "address": null,
      "type": "amenity:cafe"
    },
    {
      "name": "Coffee Day's",
      "alternativeNames": [],
      "localizedNames": {
        "am": "ኮፊ ዴይስ"
      },
      "coordinates": [
        38.7708241,
        9.0156548
      ],
      "address": null,
      "type": "amenity:cafe"
    },
    {
      "name": "መነን",
      "alternativeNames": [],
      "localizedNames": {
        "en": "Mennen",
        "fr": "Mennen"
      },
      "coordinates": [
        38.7588113,
        9.0514054
      ],
      "address": null,
      "type": null
    },
    {
      "name": "Dan",
      "alternativeNames": [],
      "localizedNames": {
        "am": "ዳን",
        "en": "Dan Furniture"
      },
      "coordinates": [
        38.7640212,
        9.0084082
      ],
      "address": null,
      "type": "shop:furniture"
    },
    {
      "name": "ካዛንቺስ",
      "alternativeNames": [],
      "localizedNames": {
        "en": "Kazanchis",
        "fr": "Kazanchis"
      },
      "coordinates": [
        38.7712221,
        9.0159277
      ],
      "address": null,
      "type": null
    },
    {
      "name": "መናሃሪያ ካዛንቺስ Menahereya Kazanchis",
      "alternativeNames": [],
      "localizedNames": {
        "am": "መናሃሪያ ካዛንቺስ",
        "en": "Menahereya Kazanchis",
        "fr": "Menahereya Kazanchis"
      },
      "coordinates": [
        38.7677037,
        9.0202903
      ],
      "address": null,
      "type": null
    },
    {
      "name": "Shiromeda-ሽሮሜዳ",
      "alternativeNames": [],
      "localizedNames": {
        "en": "Shiromeda",
        "fr": "Shiromeda"
      },
      "coordinates": [
        38.7613693,
        9.0605328
      ],
      "address": null,
      "type": null
    },
    {
      "name": "For U Accessory",
      "alternativeNames": [],
      "localizedNames": {
        "am": "ፎር ዩ አክስስሪ"
      },
      "coordinates": [
        38.767496,
        9.0044462
      ],
      "address": "African Ave BMS 12",
      "type": null
    },
    {
      "name": "Saron Collection",
      "alternativeNames": [],
      "localizedNames": {
        "am": "ሳሮን ኮሌክሽን"
      },
      "coordinates": [
        38.7675566,
        9.0044582
      ],
      "address": "African Ave BMS 13",
      "type": null
    },
    {
      "name": "Star Collection",
      "alternativeNames": [],
      "localizedNames": {
        "am": "ስታር ኮሌክሽን"
      },
      "coordinates": [
        38.7676485,
        9.0044801
      ],
      "address": "African Ave BMS 14",
      "type": null
    },
    {
      "name": "Keleb Special song",
      "alternativeNames": [],
      "localizedNames": {
        "am": "ከልብ ስፔሻል ሙዚቃ"
      },
      "coordinates": [
        38.7674128,
        9.0044912
      ],
      "address": "African Ave BMS 10B",
      "type": null
    },
    {
      "name": "Reem electronics",
      "alternativeNames": [],
      "localizedNames": {},
      "coordinates": [
        38.7673875,
        9.0045386
      ],
      "address": "African Ave BMS 10A",
      "type": null
    },
    {
      "name": "Ben tech",
      "alternativeNames": [],
      "localizedNames": {
        "am": "ቤን ቴክ"
      },
      "coordinates": [
        38.7673458,
        9.0046608
      ],
      "address": "African Ave BMS 08B",
      "type": null
    },
    {
      "name": "Rock Land",
      "alternativeNames": [],
      "localizedNames": {
        "am": "ሮክ ላንድ"
      },
      "coordinates": [
        38.7673825,
        9.004601
      ],
      "address": "African Ave BMS 09",
      "type": null
    },
    {
      "name": "Cannan Style",
      "alternativeNames": [],
      "localizedNames": {
        "am": "ካናን ስታይል"
      },
      "coordinates": [
        38.7676496,
        9.0045829
      ],
      "address": "African Ave BMS 01B",
      "type": null
    },
    {
      "name": "Wondi Studio & Bridal",
      "alternativeNames": [],
      "localizedNames": {
        "am": "ወንዲ ስቲዲዎ እና ብራይዳል"
      },
      "coordinates": [
        38.7676374,
        9.0046228
      ],
      "address": "African Ave BMS 02A",
      "type": null
    },
    {
      "name": "NIB International Bank S.C",
      "alternativeNames": [],
      "localizedNames": {
        "am": "ንብ ኢንተርናሽናል ባንክ"
      },
      "coordinates": [
        38.7676708,
        9.004541
      ],
      "address": null,
      "type": "amenity:bank"
    },
    {
      "name": "Yordi Design",
      "alternativeNames": [],
      "localizedNames": {},
      "coordinates": [
        38.7672663,
        9.0047955
      ],
      "address": "African Ave BMS 07C",
      "type": null
    },
    {
      "name": "Hi under wear",
      "alternativeNames": [],
      "localizedNames": {
        "am": "ሀይ አንደር ዌር"
      },
      "coordinates": [
        38.7673117,
        9.0047244
      ],
      "address": "African Ave BMS 08A",
      "type": null
    },
    {
      "name": "Ambrosia Cafe",
      "alternativeNames": [],
      "localizedNames": {
        "am": "አምብሮዚያ ካፌ"
      },
      "coordinates": [
        38.7672335,
        9.0048728
      ],
      "address": "African Ave BMS 07B",
      "type": "amenity:cafe"
    },
    {
      "name": "ALDO",
      "alternativeNames": [],
      "localizedNames": {},
      "coordinates": [
        38.7672335,
        9.0049302
      ],
      "address": "African Ave BMS 07A",
      "type": null
    },
    {
      "name": "Uni trade",
      "alternativeNames": [],
      "localizedNames": {},
      "coordinates": [
        38.767017,
        9.0051258
      ],
      "address": "African Ave BMS 016",
      "type": null
    },
    {
      "name": "Free Style",
      "alternativeNames": [],
      "localizedNames": {
        "am": "ፍሪ ስታይል"
      },
      "coordinates": [
        38.7671551,
        9.0050322
      ],
      "address": "African Ave BMS 06",
      "type": null
    },
    {
      "name": "Betty's Fashion",
      "alternativeNames": [],
      "localizedNames": {
        "am": "ቤትስ ፋሽን"
      },
      "coordinates": [
        38.7675617,
        9.0046886
      ],
      "address": "African Ave BMS 03A",
      "type": "shop:clothes"
    },
    {
      "name": "Dinke Traditinal",
      "alternativeNames": [],
      "localizedNames": {
        "am": "ድንቄ ባህላዊ ልብስ"
      },
      "coordinates": [
        38.7675445,
        9.0047226
      ],
      "address": "African Ave BMS 03B",
      "type": "shop:clothes"
    },
    {
      "name": "Ethiopian Grade one Ass.Contractor",
      "alternativeNames": [],
      "localizedNames": {
        "am": "ኢትዮጲያን ግሬድ 1 አሲስታንስ ኮንትራክተር"
      },
      "coordinates": [
        38.7676384,
        9.0046737
      ],
      "address": "African Ave BMS 02B",
      "type": null
    },
    {
      "name": "WUB Art Gallary",
      "alternativeNames": [],
      "localizedNames": {
        "am": "ዉብ አርት ጋላሪ"
      },
      "coordinates": [
        38.7675156,
        9.0047785
      ],
      "address": "African Ave BMS 05B",
      "type": null
    },
    {
      "name": "Souv Ethiopia",
      "alternativeNames": [],
      "localizedNames": {},
      "coordinates": [
        38.7674998,
        9.0048175
      ],
      "address": "African Ave BMS 05A",
      "type": null
    },
    {
      "name": "Windscore School Of English",
      "alternativeNames": [],
      "localizedNames": {
        "am": "ዊንድስኮር የ እንግሊዘኛ ት/ቤት"
      },
      "coordinates": [
        38.7675866,
        9.0047598
      ],
      "address": "African Ave BMS 04A",
      "type": null
    },
    {
      "name": "WUBE Art Store",
      "alternativeNames": [],
      "localizedNames": {},
      "coordinates": [
        38.767547,
        9.0048386
      ],
      "address": "African Ave BMS 05B",
      "type": "amenity:arts_centre"
    },
    {
      "name": "MTM",
      "alternativeNames": [],
      "localizedNames": {},
      "coordinates": [
        38.7674682,
        9.0049235
      ],
      "address": "African Ave BMS 05C",
      "type": null
    },
    {
      "name": "WUB Art Gallary",
      "alternativeNames": [],
      "localizedNames": {
        "am": "ዉብ አርት ጋላሪ"
      },
      "coordinates": [
        38.7674742,
        9.0048542
      ],
      "address": "African Ave BMS 05B",
      "type": null
    },
    {
      "name": "Post",
      "alternativeNames": [],
      "localizedNames": {},
      "coordinates": [
        38.7673909,
        9.0050934
      ],
      "address": null,
      "type": "amenity:post_office"
    },
    {
      "name": "Saharawi Embassy",
      "alternativeNames": [],
      "localizedNames": {
        "am": "ሳሃራዊ ኤምባሲ",
        "en": "Saharawi Embassy",
        "fr": "Ambassade du Sahara Occidental"
      },
      "coordinates": [
        38.7294399,
        8.9942134
      ],
      "address": null,
      "type": "office:diplomatic"
    },
    {
      "name": "Segen Motel",
      "alternativeNames": [],
      "localizedNames": {
        "am": "ሰገን ሞቴል"
      },
      "coordinates": [
        38.7919659,
        9.0087828
      ],
      "address": null,
      "type": "tourism:motel"
    },
    {
      "name": "Bole Sub City 17 Health Center",
      "alternativeNames": [],
      "localizedNames": {
        "am": "ቦሌ ክ/ከተማ 17 ጤና ጣቢያ"
      },
      "coordinates": [
        38.7893533,
        9.0050983
      ],
      "address": null,
      "type": "amenity:doctors"
    },
    {
      "name": "Assiha Restaurant",
      "alternativeNames": [],
      "localizedNames": {
        "am": "አሲሃ ሬስቶራንት"
      },
      "coordinates": [
        38.7904949,
        9.0091003
      ],
      "address": null,
      "type": "amenity:restaurant"
    },
    {
      "name": "London Collection Shop",
      "alternativeNames": [],
      "localizedNames": {
        "am": "ለንደን ኮሌክሽን ሱቅ"
      },
      "coordinates": [
        38.7889894,
        9.0067098
      ],
      "address": null,
      "type": "shop:clothes"
    },
    {
      "name": "MAKRI's KIDS and Maternity",
      "alternativeNames": [],
      "localizedNames": {
        "am": "ማክሪስ የህፃናትና ነፍሰጡሮች አልባሳት"
      },
      "coordinates": [
        38.7889795,
        9.0068466
      ],
      "address": null,
      "type": "shop:clothes"
    },
    {
      "name": "Dawit Kitfo Gurage Cuisine and Hotel",
      "alternativeNames": [],
      "localizedNames": {
        "am": "ዳዊት የጉራጌ ክትፎና ሆቴል"
      },
      "coordinates": [
        38.7949992,
        9.0156551
      ],
      "address": null,
      "type": "amenity:restaurant"
    },
    {
      "name": "Hurry Fashion",
      "alternativeNames": [],
      "localizedNames": {
        "am": "ኸሪ ፋሽን"
      },
      "coordinates": [
        38.7890289,
        9.0065536
      ],
      "address": null,
      "type": "shop:clothes"
    },
    {
      "name": "Angola Embassy",
      "alternativeNames": [],
      "localizedNames": {
        "am": "አንጎላ ኤምባሲ",
        "en": "Angola Embassy",
        "fr": "Ambassade d'Angola"
      },